,City,Lat,Lon,Temp_C,Feels_like,Temp_min_C,Temp_max_C,Humidity,Wind_speed_mph,Clouds,Country,Time_zone
0,ambilobe,-13.2,49.05,21.0,21.92,21.0,21.0,70,1.15,94,MG,10800
1,datia,25.67,78.47,33.78,36.28,33.78,33.78,43,1.32,48,IN,19800
2,arraial do cabo,-22.97,-42.03,27.42,25.36,27.0,28.0,61,7.7,50,BR,-10800
3,la paz,-16.5,-68.15,13.0,8.37,13.0,13.0,17,2.1,40,BO,-14400
4,itoman,26.12,127.67,27.93,31.61,27.78,28.0,88,4.6,20,JP,32400
5,vuktyl,63.86,57.31,19.05,16.6,19.05,19.05,56,3.59,13,RU,10800
6,butaritari,3.07,172.79,28.04,29.54,28.04,28.04,77,5.85,2,KI,43200
7,marawi,8.0,124.29,25.0,28.4,25.0,25.0,89,2.68,100,PH,28800
9,hobart,-42.88,147.33,4.5,0.55,2.78,5.56,80,3.1,97,AU,36000
10,cherskiy,68.75,161.3,17.3,15.52,17.3,17.3,65,2.86,29,RU,39600
11,mataura,-46.19,168.86,3.89,1.16,3.89,3.89,83,1.34,92,NZ,43200
12,klaksvik,62.23,-6.59,12.0,9.22,12.0,12.0,81,3.6,28,FO,3600
13,iskateley,67.68,53.15,22.7,21.54,22.7,22.7,65,4.38,3,RU,10800
14,pokhara,28.23,83.98,22.46,24.67,22.46,22.46,81,1.48,98,NP,20700
15,saint-philippe,-21.36,55.77,15.05,11.5,11.67,19.0,59,4.1,75,RE,14400
16,taoudenni,22.68,-3.98,46.41,42.66,46.41,46.41,9,3.99,18,ML,0
17,ushuaia,-54.8,-68.3,4.0,-0.21,4.0,4.0,60,2.6,90,AR,-10800
18,hithadhoo,-0.6,73.08,28.47,32.35,28.47,28.47,69,1.34,99,MV,18000
19,hilo,19.73,-155.09,18.32,17.91,10.0,23.0,78,2.6,75,US,-36000
20,port alfred,-33.59,26.89,17.64,14.74,17.64,17.64,53,3.46,0,ZA,7200
21,punta arenas,-53.15,-70.92,3.46,-3.97,3.0,3.89,76,7.7,75,CL,-10800
22,kapaa,22.08,-159.32,22.99,22.32,21.67,25.0,83,6.2,75,US,-36000
23,panzhihua,26.59,101.71,23.06,25.57,23.06,23.06,77,0.91,100,CN,28800
24,leningradskiy,69.38,178.42,7.68,1.77,7.68,7.68,72,6.29,96,RU,43200
25,alice springs,-23.7,133.88,4.0,0.25,4.0,4.0,64,2.1,0,AU,34200
27,jasper,37.2,-94.35,29.32,32.36,29.0,29.44,66,2.6,20,US,-18000
28,catumbela,-12.43,13.55,25.0,26.79,25.0,25.0,73,2.6,20,AO,3600
29,hamilton,39.18,-84.53,27.08,30.45,25.0,28.89,78,2.6,40,US,-14400
30,saint george,37.1,-113.58,32.84,30.05,32.0,33.33,27,4.6,1,US,-21600
31,katsuura,35.13,140.3,22.46,26.36,21.67,22.78,92,0.47,100,JP,32400
33,aklavik,68.22,-135.01,12.0,7.99,12.0,12.0,62,4.1,75,CA,-21600
34,suntar,62.14,117.63,14.73,14.53,14.73,14.73,82,1.03,34,RU,32400
35,mahebourg,-20.41,57.7,20.0,14.26,20.0,20.0,52,8.2,75,MU,14400
36,dikson,73.51,80.55,5.42,1.53,5.42,5.42,87,3.52,21,RU,25200
37,carnarvon,-24.87,113.63,17.0,16.51,17.0,17.0,100,4.1,0,AU,28800
38,burgeo,47.62,-57.62,17.61,16.58,17.61,17.61,78,3.14,91,CA,-9000
39,machinga,-15.17,35.3,15.1,13.61,15.1,15.1,71,2.15,76,MW,7200
40,vaini,-21.2,-175.2,20.0,22.23,20.0,20.0,100,2.1,75,TO,46800
41,bethel,41.37,-73.41,28.01,30.84,27.0,28.89,78,4.1,1,US,-14400
42,bossier city,32.52,-93.73,31.53,35.04,31.0,32.22,59,2.1,1,US,-18000
43,coaticook,45.13,-71.8,23.23,25.54,22.78,23.89,83,2.1,75,CA,-14400
44,nacala,-14.54,40.67,21.68,20.87,21.68,21.68,72,4.22,22,MZ,7200
45,asau,46.43,26.4,16.67,17.78,16.67,16.67,96,1.27,67,RO,10800
46,atuona,-9.8,-139.03,25.73,23.11,25.73,25.73,74,9.54,6,PF,-34200
47,kloulklubed,7.04,134.26,25.0,29.75,25.0,25.0,94,1.5,40,PW,32400
48,rikitea,-23.12,-134.97,19.31,14.22,19.31,19.31,66,8.51,3,PF,-32400
49,chuy,-33.7,-53.46,19.15,19.72,19.15,19.15,94,3.27,100,UY,-10800
50,cape town,-33.93,18.42,16.25,15.11,15.56,17.22,77,2.6,0,ZA,7200
51,avarua,-21.21,-159.78,23.0,26.77,23.0,23.0,100,2.1,2,CK,-36000
54,dokri,27.37,68.1,39.83,39.61,39.83,39.83,27,3.87,0,PK,18000
55,quthing,-30.4,27.7,7.81,4.96,7.81,7.81,45,0.6,0,LS,7200
56,albany,42.6,-73.97,27.28,31.7,25.56,28.89,82,1.94,62,US,-14400
57,vanimo,-2.67,141.3,25.48,29.29,25.48,25.48,86,2.02,46,PG,36000
58,te anau,-45.42,167.72,1.34,-1.9,1.34,1.34,88,1.7,47,NZ,43200
59,palmerston,-12.49,130.98,19.62,18.94,17.22,22.0,73,3.1,34,AU,34200
60,tuktoyaktuk,69.45,-133.04,11.0,6.72,11.0,11.0,76,5.1,75,CA,-21600
61,constitucion,-35.33,-72.42,11.83,9.76,11.83,11.83,66,1.55,32,CL,-14400
62,tasiilaq,65.61,-37.64,6.0,0.51,6.0,6.0,81,5.7,75,GL,-7200
64,umm bab,25.21,50.81,35.18,38.77,35.0,35.56,56,4.1,1,QA,10800
66,hermanus,-34.42,19.23,13.33,13.14,13.33,13.33,88,0.89,0,ZA,7200
67,zaria,11.11,7.72,26.18,28.36,26.18,26.18,75,3.14,67,NG,3600
69,kawalu,-7.38,108.21,21.68,24.82,21.68,21.68,89,0.65,99,ID,25200
70,machico,32.7,-16.77,23.29,20.97,22.22,24.0,64,6.2,20,PT,3600
71,namibe,-15.2,12.15,22.29,22.05,22.29,22.29,62,2.47,0,AO,3600
72,luderitz,-26.65,15.16,27.0,22.94,27.0,27.0,21,3.6,0,NA,7200
73,lerwick,60.15,-1.15,14.0,9.54,14.0,14.0,87,7.2,75,GB,3600
75,nanortalik,60.14,-45.24,8.58,6.21,8.58,8.58,91,2.45,100,GL,-7200
76,bedesa,8.9,40.78,17.11,17.16,17.11,17.11,84,1.93,23,ET,10800
77,gweta,-20.18,25.23,16.8,12.09,16.8,16.8,30,3.71,0,BW,7200
78,nikolskoye,59.7,30.79,15.2,10.07,15.0,15.56,54,6.0,40,RU,10800
79,puerto ayora,-0.74,-90.35,22.53,17.18,21.67,24.0,73,11.3,20,EC,-21600
80,whitehorse,60.72,-135.05,10.13,9.23,10.0,10.56,93,1.0,90,CA,-25200
81,broome,42.25,-75.83,26.18,27.37,25.56,27.0,69,3.6,75,US,-14400
82,pechora,65.15,57.22,20.45,19.24,20.45,20.45,60,2.79,12,RU,10800
83,narsaq,60.92,-46.05,18.0,10.37,18.0,18.0,31,8.2,75,GL,-7200
85,erenhot,43.65,111.98,29.35,25.75,29.35,29.35,30,5.19,97,CN,28800
86,iona,26.52,-81.96,28.19,27.8,27.22,31.0,66,6.7,40,US,-14400
87,gimbi,9.17,35.83,13.19,13.46,13.19,13.19,100,1.03,100,ET,10800
88,swan hill,-35.34,143.55,3.33,-0.27,3.33,3.33,89,2.68,19,AU,36000
89,kalmunai,7.42,81.82,26.89,27.68,26.89,26.89,80,6.47,100,LK,19800
90,whitley bay,55.04,-1.45,19.88,16.73,18.89,21.11,68,6.2,20,GB,3600
91,bathsheba,13.22,-59.52,31.0,30.18,31.0,31.0,58,7.7,40,BB,-14400
92,qujing,25.48,103.78,16.82,16.76,16.82,16.82,92,2.66,98,CN,28800
94,castro,-24.79,-50.01,23.63,21.81,23.63,23.63,45,3.06,24,BR,-10800
95,jamestown,42.1,-79.24,25.54,27.6,24.0,26.67,83,4.1,90,US,-14400
96,goderich,43.75,-81.72,22.92,21.94,21.11,26.67,76,5.68,21,CA,-14400
97,banda aceh,5.56,95.32,25.78,28.37,25.78,25.78,79,2.91,95,ID,25200
98,busselton,-33.65,115.33,7.34,4.64,7.22,7.78,72,1.62,5,AU,28800
99,semirom,31.42,51.57,20.16,17.01,20.16,20.16,28,1.9,91,IR,16200
100,kalat,29.02,66.59,23.21,20.62,23.21,23.21,28,1.73,58,PK,18000
101,pochutla,15.74,-96.47,29.72,34.16,29.44,30.0,70,1.68,90,MX,-18000
102,northam,51.03,-4.22,16.67,16.1,16.11,17.22,95,3.58,100,GB,3600
103,bluff,-46.6,168.33,3.89,1.16,3.89,3.89,83,1.34,87,NZ,43200
104,rafai,4.95,23.92,21.85,25.22,21.85,21.85,93,0.93,66,CF,3600
105,cockburn town,21.46,-71.14,30.0,30.87,30.0,30.0,66,6.2,40,TC,-14400
106,tura,25.52,90.22,24.04,27.59,24.04,24.04,97,2.85,100,IN,19800
107,siilinjarvi,63.08,27.67,14.0,12.15,14.0,14.0,82,3.1,85,FI,10800
108,cabo san lucas,22.89,-109.91,29.3,29.86,27.0,31.11,69,6.7,5,MX,-21600
109,dno,57.83,29.96,14.21,12.43,14.21,14.21,78,2.78,59,RU,10800
111,putina,-15.47,-69.43,8.71,4.17,8.71,8.71,45,3.15,0,PE,-18000
112,elizabeth city,36.29,-76.25,33.68,36.16,33.33,34.44,63,6.2,1,US,-14400
115,yar-sale,66.83,70.83,10.55,7.44,10.55,10.55,70,2.93,40,RU,18000
116,victoria,22.29,114.16,29.1,32.54,28.33,30.0,74,3.38,12,HK,28800
117,nanning,22.82,108.32,28.0,33.0,28.0,28.0,78,1.0,32,CN,28800
118,makanya,-4.37,37.83,19.62,17.93,19.62,19.62,63,3.46,27,TZ,10800
119,shirokiy,49.76,129.52,17.78,18.74,17.78,17.78,92,1.72,100,RU,32400
120,mindelo,16.89,-24.98,30.0,31.99,30.0,30.0,66,4.6,40,CV,-3600
121,bredasdorp,-34.53,20.04,14.0,13.11,14.0,14.0,87,2.1,0,ZA,7200
122,beringovskiy,63.05,179.32,8.67,6.21,8.67,8.67,83,2.19,70,RU,43200
123,upernavik,72.79,-56.15,7.9,2.82,7.9,7.9,73,5.2,78,GL,-7200
124,prado,-17.34,-39.22,25.0,25.16,25.0,25.0,65,3.74,17,BR,-10800
125,lorengau,-2.02,147.27,28.04,31.13,28.04,28.04,79,3.93,46,PG,36000
126,kudahuvadhoo,2.67,72.89,28.3,30.75,28.3,28.3,77,4.7,100,MV,18000
127,hay river,60.82,-115.8,15.0,11.55,15.0,15.0,87,6.2,75,CA,-21600
128,athabasca,54.72,-113.29,19.55,19.44,19.55,19.55,69,1.82,92,CA,-21600
129,kysyl-syr,63.9,122.76,17.55,16.52,17.55,17.55,73,2.64,76,RU,32400
130,sitka,57.05,-135.33,12.0,10.83,12.0,12.0,93,2.1,90,US,-28800
131,saint anthony,45.02,-93.22,22.51,22.42,21.0,23.89,60,2.1,20,US,-18000
132,khatanga,71.97,102.5,5.78,-1.25,5.78,5.78,85,8.01,100,RU,25200
133,micheweni,-4.97,39.83,24.32,21.17,24.32,24.32,67,8.37,72,TZ,10800
134,kruisfontein,-34.0,24.73,13.55,12.39,13.55,13.55,72,1.2,0,ZA,7200
135,requena,39.49,-1.1,31.39,28.38,31.11,31.67,25,3.98,17,ES,7200
136,kodiak,57.79,-152.41,13.0,11.45,13.0,13.0,71,1.5,1,US,-28800
137,lieksa,63.32,30.02,14.9,13.33,14.9,14.9,78,2.75,44,FI,10800
138,margate,51.38,1.39,22.78,16.51,22.22,24.0,38,8.2,98,GB,3600
139,qaanaaq,77.48,-69.36,9.47,6.95,9.47,9.47,51,0.73,0,GL,-10800
140,ribeira grande,38.52,-28.7,23.0,23.21,23.0,23.0,69,3.1,20,PT,0
141,ostrovnoy,68.05,39.51,19.92,17.86,19.92,19.92,70,4.88,26,RU,10800
142,new norfolk,-42.78,147.06,4.22,1.77,3.89,4.44,87,1.17,99,AU,36000
143,sakakah,29.97,40.21,40.0,35.77,40.0,40.0,8,3.1,20,SA,10800
144,xingcheng,40.62,120.72,23.29,24.64,23.29,23.29,73,2.17,0,CN,28800
146,kidal,18.44,1.41,39.39,39.22,39.39,39.39,18,0.56,40,ML,0
147,iqaluit,63.75,-68.51,8.94,6.75,8.89,9.0,87,2.1,75,CA,-14400
148,port hardy,50.7,-127.42,15.0,13.08,15.0,15.0,82,3.6,90,CA,-25200
149,umm lajj,25.02,37.27,33.12,34.3,33.12,33.12,47,3.78,0,SA,10800
150,saravena,6.95,-71.88,31.97,34.42,31.97,31.97,49,1.71,76,CO,-18000
151,san patricio,19.22,-104.7,32.0,36.86,32.0,32.0,75,4.1,75,MX,-18000
154,saldanha,-33.01,17.94,24.0,23.62,24.0,24.0,44,1.0,0,ZA,7200
155,lompoc,34.64,-120.46,15.77,15.14,15.0,16.11,82,2.1,78,US,-25200
156,morgantown,39.63,-79.96,25.29,26.62,23.89,26.0,74,3.6,90,US,-14400
158,vila velha,-20.33,-40.29,26.17,26.38,25.56,27.0,54,2.6,20,BR,-10800
159,kahului,20.89,-156.47,22.37,23.4,21.0,23.89,73,2.1,20,US,-36000
160,aksarka,66.56,67.8,11.83,8.73,11.83,11.83,67,3.08,51,RU,18000
161,muisne,0.6,-80.03,25.0,27.65,25.0,25.0,88,3.6,90,EC,-18000
162,metro,-5.11,105.31,23.49,27.0,23.49,23.49,90,1.52,98,ID,25200
163,slavyansk-na-kubani,45.25,38.12,23.92,19.43,23.89,24.0,38,6.0,0,RU,10800
164,prachuap khiri khan,11.82,99.78,26.56,30.09,26.56,26.56,83,2.79,92,TH,25200
165,portland,45.52,-122.68,16.87,15.29,15.56,18.33,67,2.6,90,US,-25200
166,muscatine,41.47,-91.13,25.18,26.98,25.0,25.56,69,2.1,20,US,-18000
167,torbay,47.67,-52.73,24.43,20.82,23.89,25.56,47,6.2,75,CA,-9000
170,manzil salim,35.86,8.48,37.0,33.37,37.0,37.0,14,3.6,20,TN,3600
171,ayia galini,35.1,24.68,27.38,26.44,26.11,28.33,49,4.02,0,GR,10800
172,ponta do sol,32.67,-17.1,22.51,19.91,21.67,24.0,64,6.2,20,PT,3600
174,adrar,20.5,-10.07,41.55,37.51,41.55,41.55,15,5.7,0,MR,0
175,paamiut,61.99,-49.67,7.93,6.58,7.93,7.93,96,1.04,100,GL,-7200
176,egvekinot,66.32,-179.17,12.27,10.63,12.27,12.27,69,1.26,75,RU,43200
177,atasu,48.68,71.64,24.85,23.16,24.85,24.85,44,3.2,81,KZ,21600
178,mar del plata,-38.0,-57.56,12.67,11.33,11.67,13.33,100,3.1,90,AR,-10800
179,havre-saint-pierre,50.23,-63.6,22.0,21.05,22.0,22.0,64,3.6,20,CA,-14400
180,makakilo city,21.35,-158.09,22.01,24.19,19.0,23.89,83,1.5,1,US,-36000
181,bengkulu,-3.8,102.27,24.44,27.94,24.44,24.44,90,2.25,99,ID,25200
182,saint-pierre,-21.34,55.48,15.87,7.64,11.67,20.0,56,10.8,75,RE,14400
183,ambon,-3.7,128.18,25.56,19.49,25.56,25.56,15,5.27,25,ID,32400
184,dunedin,-45.87,170.5,4.09,1.38,3.33,5.0,71,0.89,35,NZ,43200
185,kinkala,-4.36,14.76,25.0,25.95,25.0,25.0,65,2.6,13,CG,3600
186,moron,-34.65,-58.62,11.84,11.7,11.67,12.22,98,0.89,100,AR,-10800
187,naze,28.37,129.48,28.0,32.15,28.0,28.0,83,3.1,20,JP,32400
188,birao,10.28,22.79,22.89,25.79,22.89,22.89,85,1.3,100,CF,3600
191,bambous virieux,-20.34,57.76,20.0,14.26,20.0,20.0,52,8.2,75,MU,14400
192,tiksi,71.69,128.87,14.58,12.54,14.58,14.58,81,3.53,87,RU,32400
193,lata,40.16,-8.33,26.36,29.32,22.22,29.44,81,3.13,0,PT,3600
194,hofn,64.25,-15.21,14.0,10.74,14.0,14.0,62,3.6,75,IS,0
195,morondava,-20.28,44.28,23.31,21.21,23.31,23.31,54,4.55,0,MG,10800
196,codrington,-38.27,141.97,4.08,-0.16,4.08,4.08,87,3.7,90,AU,36000
197,bojonegoro,-7.15,111.88,23.68,25.95,23.68,23.68,82,2.33,100,ID,25200
198,bonavista,48.65,-53.11,18.36,17.11,18.36,18.36,63,2.33,18,CA,-9000
199,magway,20.15,94.92,26.45,29.05,26.45,26.45,79,3.39,87,MM,23400
200,tautira,-17.73,-149.15,23.94,25.61,23.89,24.0,73,2.1,75,PF,-36000
201,lasa,46.62,10.7,22.0,19.05,22.0,22.0,37,3.1,75,IT,7200
203,nivala,63.92,24.97,13.33,11.9,13.33,13.33,82,2.24,100,FI,10800
204,ust-kuyga,70.02,135.6,18.03,17.78,18.03,18.03,67,1.16,30,RU,36000
205,east london,-33.02,27.91,19.45,16.28,19.45,19.45,55,4.66,0,ZA,7200
206,saint-joseph,-21.37,55.62,15.75,7.49,11.67,20.0,56,10.8,75,RE,14400
207,lagoa,39.05,-27.98,20.91,21.68,20.91,20.91,70,1.33,0,PT,0
208,sinegorye,62.08,150.48,13.73,12.23,13.73,13.73,66,1.3,66,RU,39600
209,yinchuan,38.47,106.27,25.35,24.43,25.35,25.35,57,4.27,85,CN,28800
210,saint-denis,48.92,2.33,26.67,23.96,26.0,27.22,24,2.1,99,FR,7200
212,mogadishu,2.04,45.34,24.95,22.42,24.95,24.95,74,8.88,47,SO,10800
213,sungaipenuh,-2.08,101.38,18.27,19.77,18.27,18.27,94,1.42,100,ID,25200
214,mayo,38.89,-76.51,31.2,34.64,30.0,32.22,62,2.6,1,US,-14400
215,korla,41.76,86.15,26.67,28.85,26.67,26.67,70,2.68,32,CN,28800
216,cidreira,-30.18,-50.21,21.69,21.28,21.69,21.69,70,3.41,99,BR,-10800
217,clyde river,70.47,-68.59,10.0,6.14,10.0,10.0,57,3.1,90,CA,-14400
218,kavieng,-2.57,150.8,28.07,30.1,28.07,28.07,77,5.12,45,PG,36000
220,jiangyou,31.77,104.72,23.95,27.4,23.95,23.95,87,1.53,95,CN,28800
221,medea,36.26,2.75,28.0,27.59,28.0,28.0,61,5.7,75,DZ,3600
222,bubaque,11.28,-15.83,27.17,28.56,27.17,27.17,83,6.35,100,GW,0
223,hirado,33.36,129.55,26.46,31.69,25.56,27.78,95,2.24,100,JP,32400
224,yellowknife,62.46,-114.35,15.44,13.94,15.0,16.67,93,4.1,90,CA,-21600
225,chicama,-7.84,-79.15,22.48,20.05,22.48,22.48,55,4.79,26,PE,-18000
226,mehamn,71.04,27.85,10.0,9.06,10.0,10.0,93,1.0,90,NO,7200
227,murmashi,68.82,32.81,22.0,20.42,22.0,22.0,60,4.0,21,RU,10800
228,gubkinskiy,64.43,76.5,12.89,7.64,12.89,12.89,65,6.33,13,RU,18000
229,provideniya,64.38,-173.3,9.97,6.3,9.97,9.97,66,3.34,44,RU,43200
230,plavinas,56.62,25.73,13.31,11.96,13.31,13.31,88,2.54,51,LV,10800
231,simao,22.79,100.97,18.39,20.35,18.39,18.39,94,0.83,70,CN,28800
234,umm kaddadah,13.6,26.69,35.36,34.38,35.36,35.36,23,1.88,86,SD,7200
235,port lincoln,-34.73,135.87,10.87,4.66,10.87,10.87,53,6.41,39,AU,34200
236,waitati,-45.75,170.57,4.2,-2.15,3.33,5.0,63,5.81,20,NZ,43200
237,necochea,-38.55,-58.74,11.67,9.95,11.67,11.67,99,3.13,100,AR,-10800
238,tuatapere,-46.13,167.68,3.89,1.16,3.89,3.89,83,1.34,90,NZ,43200
239,krasnaya poyma,55.0,39.08,16.67,15.48,16.67,16.67,50,0.45,22,RU,10800
241,naranjito,-2.22,-79.48,28.91,31.22,28.33,29.44,62,2.6,20,EC,-18000
242,saint-augustin,51.23,-58.65,23.06,18.71,23.06,23.06,38,5.53,100,CA,-14400
243,nouadhibou,20.93,-17.03,22.0,17.66,22.0,22.0,83,10.8,0,MR,0
244,shimoda,34.67,138.95,19.44,20.82,19.44,19.44,95,2.41,100,JP,32400
245,longyearbyen,78.22,15.64,10.0,6.9,10.0,10.0,76,3.1,90,SJ,7200
246,miracema do tocantins,-9.56,-48.4,35.07,34.07,35.07,35.07,28,3.13,26,BR,-10800
247,pisco,-13.7,-76.22,19.19,18.31,19.0,19.44,77,3.6,20,PE,-18000
248,moroto,2.53,34.67,19.29,20.93,19.29,19.29,85,0.89,43,UG,10800
249,lavrentiya,65.58,-171.0,11.86,7.28,11.86,11.86,57,4.56,100,RU,43200
251,half moon bay,37.46,-122.43,16.93,14.63,14.44,18.89,72,4.1,40,US,-25200
252,atherton,53.52,-2.49,16.67,16.04,16.67,16.67,94,3.58,100,GB,3600
253,labis,2.38,103.02,24.16,27.78,24.16,24.16,82,0.73,93,MY,28800
254,salo,45.61,10.53,30.07,31.4,29.0,31.11,51,2.6,5,IT,7200
255,samaipata,-18.15,-63.87,17.96,15.98,17.96,17.96,69,3.79,80,BO,-14400
256,coquimbo,-29.95,-71.34,15.0,12.17,15.0,15.0,47,2.1,4,CL,-14400
257,akdepe,42.06,59.38,27.51,26.08,26.0,29.0,45,4.1,33,TM,18000
258,syracuse,37.09,15.28,31.02,32.62,30.0,32.0,62,5.1,0,IT,7200
259,muros,42.78,-9.06,25.21,22.5,23.0,26.67,60,7.2,20,ES,7200
260,ruston,32.52,-92.64,32.0,34.31,32.0,32.0,52,2.6,1,US,-18000
261,high prairie,55.43,-116.49,13.94,13.23,13.94,13.94,95,2.42,100,CA,-21600
262,altay,47.87,88.12,17.16,15.23,17.16,17.16,52,1.83,100,CN,28800
263,ancud,-41.87,-73.82,7.0,2.44,7.0,7.0,70,4.1,0,CL,-14400
264,mirnyy,62.54,113.96,14.0,14.69,14.0,14.0,100,0.82,1,RU,32400
265,moyale,3.52,39.06,20.16,21.36,20.16,20.16,69,0.24,43,KE,10800
266,yangambi,0.81,24.43,25.75,28.47,25.75,25.75,70,1.29,78,CD,7200
267,souillac,-20.52,57.52,20.0,14.26,20.0,20.0,52,8.2,75,MU,14400
268,fallon,39.47,-118.78,24.97,23.32,24.0,26.11,36,1.99,75,US,-25200
269,port hedland,-20.32,118.57,15.0,13.15,15.0,15.0,77,3.1,0,AU,28800
271,olafsvik,64.89,-23.71,9.77,3.04,9.77,9.77,68,7.77,2,IS,0
272,pathein,16.78,94.73,26.63,31.08,26.63,26.63,85,1.86,81,MM,23400
273,jiuquan,39.74,98.52,23.14,21.8,23.14,23.14,39,1.39,95,CN,28800
274,barrow,71.29,-156.79,8.0,1.34,8.0,8.0,87,8.2,90,US,-28800
275,saint-leu,-21.15,55.28,14.94,11.37,11.67,19.0,59,4.1,75,RE,14400
276,matara,5.95,80.54,25.93,29.74,25.93,25.93,86,2.37,98,LK,19800
277,zhigansk,66.77,123.37,14.38,11.29,14.38,14.38,81,4.94,42,RU,32400
279,antalaha,-14.9,50.28,21.29,18.14,21.29,21.29,73,7.48,96,MG,10800
280,pringsewu,-5.36,104.97,22.9,27.16,22.9,22.9,92,0.28,100,ID,25200
281,dunkwa,5.97,-1.78,26.44,30.9,26.44,26.44,84,1.54,87,GH,0
282,tuzha,57.61,47.94,16.47,16.67,16.47,16.47,94,2.28,100,RU,10800
285,karratha,-20.74,116.85,20.92,19.59,20.92,20.92,57,2.82,0,AU,28800
286,kostomuksha,64.57,30.58,13.47,11.41,13.47,13.47,81,3.11,100,RU,10800
287,ilhabela,-23.78,-45.36,24.65,24.52,24.65,24.65,54,2.34,52,BR,-10800
288,cayenne,4.93,-52.33,32.0,32.56,32.0,32.0,52,5.1,65,GF,-10800
289,belaya gora,68.53,146.42,22.54,21.24,22.54,22.54,51,2.7,60,RU,39600
290,hasaki,35.73,140.83,21.59,25.73,21.11,22.0,100,0.5,75,JP,32400
291,yulara,-25.24,130.99,7.0,3.8,7.0,7.0,56,1.5,0,AU,34200
292,ust-tsilma,65.44,52.15,22.04,21.72,22.04,22.04,59,2.1,97,RU,10800
293,nianzishan,47.52,122.88,22.7,21.74,22.7,22.7,46,1.63,6,CN,28800
294,haines junction,60.75,-137.51,10.53,9.26,10.53,10.53,84,1.13,100,CA,-25200
295,san cristobal,7.77,-72.22,33.0,33.26,33.0,33.0,41,3.6,20,VE,-14400
297,wenling,28.37,121.36,28.22,28.24,27.78,28.89,50,3.25,100,CN,28800
299,duluth,46.78,-92.11,21.39,18.86,21.0,22.22,56,4.6,1,US,-18000
300,rantepao,-2.97,119.9,18.86,20.84,18.86,18.86,89,0.57,95,ID,28800
301,toamasina,-18.17,49.38,20.0,19.44,20.0,20.0,82,4.1,75,MG,10800
302,westport,41.14,-73.36,28.38,30.57,27.22,29.44,74,4.6,75,US,-14400
303,lebu,-37.62,-73.65,9.53,7.13,9.53,9.53,62,1.18,46,CL,-14400
304,tartagal,-22.52,-63.8,12.0,10.13,12.0,12.0,93,3.1,90,AR,-10800
305,trairi,-3.28,-39.27,29.59,28.05,29.59,29.59,55,7.2,33,BR,-10800
306,kargasok,59.06,80.86,14.64,12.43,14.64,14.64,82,3.87,43,RU,25200
307,lodja,-3.48,23.43,28.34,27.62,28.34,28.34,29,0.57,9,CD,7200
308,warrington,53.39,-2.58,16.6,14.04,16.11,17.0,93,6.2,75,GB,3600
309,halmstad,56.67,12.86,17.54,13.97,17.0,18.33,67,5.7,3,SE,7200
310,dolores,-36.31,-57.68,15.59,13.36,15.59,15.59,86,4.63,100,AR,-10800
311,phalombe,-15.81,35.65,14.26,12.64,14.26,14.26,82,2.87,67,MW,7200
312,urucara,-2.54,-57.76,34.9,37.18,34.9,34.9,41,1.8,39,BR,-14400
313,leh,34.17,77.58,17.7,13.84,17.7,17.7,25,2.18,0,IN,19800
314,saskylakh,71.92,114.08,9.76,7.05,9.76,9.76,94,3.5,96,RU,32400
315,toropets,56.5,31.64,12.89,11.39,12.89,12.89,89,2.65,93,RU,10800
316,vanderhoof,54.02,-124.02,18.41,14.72,18.41,18.41,47,4.24,0,CA,-25200
317,srikakulam,18.3,83.9,26.09,29.89,26.09,26.09,84,2.2,100,IN,19800
318,norfolk,42.17,-71.25,31.07,33.06,29.44,32.78,55,3.1,1,US,-14400
320,pacific grove,36.62,-121.92,14.67,13.01,13.33,16.0,82,3.1,90,US,-25200
321,gasa,31.5,34.47,27.37,29.94,26.67,28.89,60,0.89,0,PS,10800
322,andenes,69.31,16.12,10.0,2.9,10.0,10.0,93,9.8,75,NO,7200
324,mochudi,-24.42,26.15,14.0,11.25,14.0,14.0,37,1.0,0,BW,7200
325,pedernales,18.04,-71.74,33.0,34.07,33.0,33.0,59,6.7,40,DO,-14400
326,itarema,-2.92,-39.92,29.36,27.81,29.36,29.36,60,8.03,45,BR,-10800
327,mandalgovi,45.76,106.27,22.4,20.69,22.4,22.4,52,3.35,94,MN,28800
328,brae,60.4,-1.35,14.0,9.54,14.0,14.0,87,7.2,75,GB,3600
329,pahrump,36.21,-115.98,30.61,27.21,22.22,35.0,15,2.24,0,US,-25200
330,kedrovyy,56.17,91.82,11.0,10.32,11.0,11.0,93,1.0,40,RU,25200
331,sao joao da barra,-21.64,-41.05,27.5,23.19,27.0,28.0,45,8.2,20,BR,-10800
332,pirassununga,-22.0,-47.43,28.0,25.46,28.0,28.0,32,3.6,2,BR,-10800
333,isla vista,34.41,-119.86,16.36,15.52,16.0,16.67,87,3.1,90,US,-25200
334,tupa,-21.93,-50.51,28.73,26.78,28.73,28.73,34,3.37,6,BR,-10800
336,kelvington,52.17,-103.53,23.96,24.73,23.96,23.96,83,4.8,1,CA,-21600
337,faanui,-16.48,-151.75,25.42,24.59,25.42,25.42,78,7.38,6,PF,-36000
339,sioux lookout,50.1,-91.92,25.0,24.08,25.0,25.0,47,2.6,20,CA,-18000
340,mudu,31.25,120.51,26.85,28.14,25.0,28.89,73,4.56,94,CN,28800
341,richards bay,-28.78,32.04,17.93,15.34,17.93,17.93,69,4.66,0,ZA,7200
342,iracoubo,5.48,-53.2,27.4,30.72,27.4,27.4,84,3.95,69,GF,-10800
343,komsomolskiy,40.43,71.72,29.0,26.78,29.0,29.0,30,3.1,10,UZ,18000
344,taltal,-25.4,-70.48,14.94,11.56,14.94,14.94,50,3.11,0,CL,-14400
345,port blair,11.67,92.75,28.17,32.08,28.17,28.17,74,1.97,78,IN,19800
347,port elizabeth,-33.92,25.57,17.0,17.21,17.0,17.0,77,1.0,0,ZA,7200
348,micomeseng,2.15,10.62,22.67,25.06,22.67,22.67,90,2.53,72,GQ,3600
349,tombouctou,20.0,-3.0,40.55,33.78,40.55,40.55,18,10.37,47,ML,0
350,esperance,-33.87,121.9,9.0,4.84,9.0,9.0,81,4.6,40,AU,28800
352,dasoguz,41.84,59.97,29.0,28.06,29.0,29.0,45,4.1,68,TM,18000
353,georgetown,5.41,100.34,26.83,32.0,26.67,27.0,88,1.5,20,MY,28800
354,nolinsk,57.56,49.94,16.68,16.06,16.68,16.68,89,3.12,100,RU,10800
355,flinders,-34.58,150.86,9.91,8.75,9.44,10.56,86,0.89,89,AU,36000
356,talnakh,69.49,88.4,9.0,-1.23,9.0,9.0,76,13.0,85,RU,25200
357,zunyi,27.69,106.91,21.76,24.05,21.76,21.76,93,2.41,57,CN,28800
358,guanica,17.97,-66.91,30.83,32.86,28.89,32.22,54,2.68,3,PR,-14400
359,dicabisagan,17.08,122.42,27.17,32.02,27.17,27.17,82,1.24,22,PH,28800
360,oyem,1.6,11.58,22.83,25.69,22.83,22.83,86,1.44,73,GA,3600
361,hammerfest,70.66,23.68,9.0,5.91,9.0,9.0,100,4.1,90,NO,7200
362,sadon,42.85,44.0,26.83,26.19,26.67,27.0,47,3.0,74,RU,10800
363,moose factory,51.26,-80.61,23.0,22.36,23.0,23.0,56,2.6,1,CA,-14400
364,camacha,33.08,-16.33,22.0,18.88,22.0,22.0,64,6.7,75,PT,3600
365,piacabucu,-10.41,-36.43,26.35,26.45,26.35,26.35,66,4.79,77,BR,-10800
366,araguaina,-7.19,-48.21,34.93,33.29,34.93,34.93,26,3.47,100,BR,-10800
368,imeni poliny osipenko,52.42,136.49,14.08,12.0,14.08,14.08,86,3.76,97,RU,36000
369,navalmoral de la mata,39.89,-5.54,33.89,34.48,33.89,33.89,30,0.89,18,ES,7200
370,ramsar,36.92,50.64,26.0,30.38,26.0,26.0,78,0.35,90,IR,16200
371,husavik,66.04,-17.34,11.0,3.98,11.0,11.0,71,8.7,75,IS,0
372,bontang,0.13,117.5,24.58,27.28,24.58,24.58,86,2.92,78,ID,28800
373,la ronge,55.1,-105.28,21.0,22.38,21.0,21.0,88,2.6,75,CA,-21600
374,palu,-0.89,119.87,23.79,26.87,23.79,23.79,81,1.11,44,ID,28800
375,honolulu,21.31,-157.86,24.51,27.36,23.89,26.11,78,1.5,40,US,-36000
376,gatton,-27.55,152.28,11.6,11.46,10.0,12.78,100,0.91,90,AU,36000
377,fairbanks,64.84,-147.72,11.23,9.23,9.44,13.0,87,2.6,90,US,-28800
378,soure,-0.72,-48.52,29.89,32.52,29.89,29.89,65,3.4,20,BR,-10800
379,ruteng,-8.61,120.47,14.08,14.74,14.08,14.08,100,0.91,79,ID,28800
380,xai-xai,-25.05,33.64,19.4,17.45,19.4,19.4,65,3.96,55,MZ,7200
381,khasan,42.43,130.64,18.82,20.01,18.82,18.82,95,2.3,100,RU,36000
382,garowe,8.41,48.48,27.72,24.97,27.72,27.72,44,5.9,37,SO,10800
383,pevek,69.7,170.31,8.97,6.14,8.97,8.97,73,2.26,0,RU,43200
384,grand gaube,-20.01,57.66,20.0,17.5,20.0,20.0,52,3.58,62,MU,14400
385,brigantine,39.41,-74.36,29.87,33.75,29.0,31.11,70,2.6,1,US,-14400
386,bintulu,3.17,113.03,23.94,28.09,23.89,24.0,94,1.5,40,MY,28800
387,airai,-8.93,125.41,11.64,10.05,11.64,11.64,71,1.14,85,TL,32400
388,tabas,33.6,56.92,38.0,34.71,38.0,38.0,10,2.1,0,IR,16200
389,opuwo,-18.06,13.84,18.76,13.65,18.76,18.76,26,4.23,9,NA,7200
390,porto santo,33.07,-16.34,22.0,18.88,22.0,22.0,64,6.7,75,PT,3600
392,hit,33.64,42.83,38.83,33.33,38.83,38.83,10,5.39,0,IQ,10800
393,sao sepe,-30.16,-53.57,29.0,24.75,29.0,29.0,39,7.7,100,BR,-10800
394,tubuala,9.52,-79.03,29.85,32.66,29.44,30.0,70,4.1,40,PA,-18000
395,tongliao,43.61,122.27,25.39,25.21,25.39,25.39,49,2.01,0,CN,28800
396,acajutla,13.59,-89.83,27.22,31.07,27.22,27.22,80,2.36,33,SV,-21600
397,valdosta,30.83,-83.28,32.45,35.39,32.0,33.33,59,3.6,75,US,-14400
398,dingle,11.0,122.67,25.03,28.6,25.03,25.03,85,1.86,89,PH,28800
399,fort saint james,54.43,-124.25,18.61,15.9,18.61,18.61,43,2.5,0,CA,-25200
400,okitipupa,6.5,4.78,24.68,27.96,24.68,24.68,88,2.46,100,NG,3600
401,ilulissat,69.22,-51.1,13.0,10.07,13.0,13.0,43,1.5,75,GL,-7200
402,ponta delgada,37.73,-25.67,22.0,21.4,22.0,22.0,60,2.6,40,PT,0
403,shingu,33.73,135.98,24.4,28.28,24.4,24.4,83,0.67,100,JP,32400
404,lesozavodsk,45.48,133.42,17.53,17.62,17.53,17.53,96,3.21,0,RU,36000
406,santiago de cao,-7.96,-79.24,18.19,14.53,18.19,18.19,75,6.88,64,PE,-18000
407,walvis bay,-22.96,14.51,25.64,20.29,20.0,31.0,14,4.1,0,NA,7200
408,mogzon,51.74,111.96,14.96,15.08,14.96,14.96,94,1.63,100,RU,32400
409,celestun,20.87,-90.4,31.02,33.75,31.02,31.02,62,3.49,6,MX,-18000
410,udachnyy,66.42,112.4,12.0,10.34,12.0,12.0,81,2.0,90,RU,32400
411,payo,-3.75,103.64,22.68,26.25,22.68,22.68,96,1.62,100,ID,25200
412,bahia blanca,-38.72,-62.27,8.1,2.89,8.1,8.1,92,6.41,100,AR,-10800
413,craigieburn,-37.6,144.95,6.02,2.15,5.0,7.0,86,3.6,75,AU,36000
414,san quintin,30.48,-115.95,20.36,17.99,20.36,20.36,65,4.98,56,MX,-25200
415,luwuk,-0.95,122.79,24.8,27.16,24.8,24.8,80,2.68,68,ID,28800
416,sur,22.57,59.53,30.25,29.4,30.25,30.25,66,8.84,87,OM,14400
417,mecca,21.43,39.83,30.54,32.96,30.54,30.54,62,3.57,7,SA,10800
418,los llanos de aridane,28.66,-17.92,23.93,20.94,23.89,24.0,69,8.2,20,ES,3600
419,merauke,-8.47,140.33,24.26,24.2,24.26,24.26,83,6.19,0,ID,32400
420,talara,-4.58,-81.27,26.0,22.58,26.0,26.0,54,7.7,2,PE,-18000
422,visnes,59.36,5.22,16.26,13.92,16.0,16.67,63,3.1,91,NO,7200
423,luanda,-8.84,13.23,23.0,22.88,23.0,23.0,73,4.1,20,AO,3600
424,langres,47.83,5.33,30.0,26.55,30.0,30.0,22,3.6,99,FR,7200
425,sanmenxia,34.77,111.18,21.07,23.52,21.07,21.07,86,0.89,100,CN,28800
427,coihaique,-45.58,-72.07,-4.0,-7.52,-4.0,-4.0,79,1.0,90,CL,-14400
428,thompson,55.74,-97.86,21.0,21.83,21.0,21.0,77,2.1,75,CA,-18000
429,ixtapa,20.7,-105.2,30.55,34.34,30.0,31.11,74,4.1,75,MX,-18000
430,wanaka,-44.7,169.15,-0.56,-3.75,-0.56,-0.56,74,0.89,38,NZ,43200
431,onega,63.91,38.14,18.51,17.89,18.51,18.51,67,1.89,82,RU,10800
432,carutapera,-1.2,-46.02,30.38,32.31,30.38,30.38,62,4.16,53,BR,-10800
434,san luis,-33.3,-66.34,3.54,-2.49,3.54,3.54,76,5.72,100,AR,-10800
435,veraval,20.9,70.37,28.93,32.25,28.93,28.93,81,4.72,100,IN,19800
436,alofi,-19.06,-169.92,23.0,25.02,23.0,23.0,100,4.6,73,NU,-39600
437,yuncheng,35.02,110.99,21.41,22.84,21.41,21.41,85,2.43,100,CN,28800
438,ucluelet,48.93,-125.55,14.28,13.12,14.0,14.44,87,2.6,90,CA,-25200
439,polyarnyy,69.2,33.45,22.0,20.42,22.0,22.0,60,4.0,46,RU,10800
440,haljala,59.43,26.26,13.78,9.71,13.78,13.78,69,5.22,17,EE,10800
441,sobolevo,54.43,31.9,14.21,12.9,14.21,14.21,83,2.49,5,RU,10800
442,srednekolymsk,67.45,153.68,19.8,17.94,19.8,19.8,49,2.26,100,RU,39600
443,anloga,5.79,0.9,28.0,27.19,28.0,28.0,69,7.7,20,GH,0
444,korem,12.51,39.52,18.85,18.02,18.85,18.85,61,1.71,67,ET,10800
445,mujiayingzi,42.12,118.78,22.16,21.42,22.16,22.16,51,1.75,6,CN,28800
446,sambava,-14.27,50.17,21.37,16.79,21.37,21.37,79,10.28,88,MG,10800
447,oussouye,12.48,-16.55,31.0,35.76,31.0,31.0,74,3.1,40,SN,0
448,oriximina,-1.77,-55.87,33.47,34.65,33.47,33.47,45,3.51,37,BR,-10800
449,whitecourt,54.15,-115.69,15.0,14.05,15.0,15.0,93,3.1,75,CA,-21600
450,nocupetaro,19.05,-101.15,28.18,31.13,28.18,28.18,64,1.56,33,MX,-18000
451,hendek,40.8,30.75,25.0,26.72,25.0,25.0,65,1.5,0,TR,10800
452,lakhdenpokhya,61.52,30.2,15.56,14.86,15.56,15.56,88,2.61,61,RU,10800
455,bilibino,68.05,166.44,16.82,15.13,16.82,16.82,57,1.83,11,RU,43200
456,nioro,13.35,-15.75,27.69,31.01,27.69,27.69,75,2.62,100,GM,0
457,san carlos de bariloche,-41.15,-71.31,-2.0,-6.64,-2.0,-2.0,68,2.6,20,AR,-10800
458,salta,-24.79,-65.41,10.0,8.05,10.0,10.0,87,2.1,90,AR,-10800
459,adelaide,-34.93,138.6,10.33,6.19,8.33,11.67,66,4.1,71,AU,34200
460,sahuaripa,29.05,-109.23,29.51,32.41,29.51,29.51,56,0.99,70,MX,-25200
461,boueni,-12.9,45.08,25.0,23.08,25.0,25.0,65,6.7,40,YT,10800
462,tahoua,14.89,5.27,34.0,32.66,34.0,34.0,44,7.2,39,NE,3600
463,antofagasta,-23.65,-70.4,15.0,9.72,15.0,15.0,67,7.2,20,CL,-14400
464,zemio,5.03,25.14,21.65,24.92,21.65,21.65,94,1.05,69,CF,3600
465,port moresby,-9.44,147.18,25.0,24.78,25.0,25.0,88,7.7,75,PG,36000
466,sarh,9.14,18.39,24.0,26.95,24.0,24.0,83,1.72,20,TD,3600
467,tarrafal,15.28,-23.77,30.0,33.04,30.0,30.0,66,3.1,40,CV,-3600
468,bonnyville,54.27,-110.73,23.0,21.7,23.0,23.0,64,4.6,75,CA,-21600
469,darnah,32.77,22.64,26.08,22.54,26.08,26.08,70,10.46,0,LY,7200
470,namatanai,-3.67,152.43,26.42,29.73,26.42,26.42,82,2.84,45,PG,36000
471,diego de almagro,-26.37,-70.05,15.07,10.16,15.07,15.07,31,3.8,0,CL,-14400
472,alta floresta,-9.88,-56.09,36.68,35.54,36.68,36.68,22,2.29,57,BR,-14400
473,ursulo galvan,22.73,-98.3,32.79,36.04,32.22,33.33,52,1.79,5,MX,-18000
474,lac-megantic,45.58,-70.88,21.14,25.08,20.0,22.78,100,0.45,68,CA,-14400
475,brookings,44.31,-96.8,26.07,23.43,26.0,26.11,74,9.8,1,US,-18000
478,warren,39.43,-84.17,25.64,30.3,24.0,27.22,100,3.1,90,US,-14400
479,christchurch,-43.53,172.63,-1.82,-5.67,-2.0,-1.67,92,2.1,0,NZ,43200
480,evensk,61.95,159.23,10.13,9.11,10.13,10.13,81,0.46,74,RU,39600
481,okhotsk,59.38,143.3,12.48,10.41,12.48,12.48,86,3.1,85,RU,36000
482,babstovo,48.12,132.48,19.52,21.09,19.52,19.52,94,2.07,86,RU,36000
483,wonthaggi,-38.6,145.59,7.2,4.33,5.56,8.89,91,2.74,60,AU,36000
484,ubinskoye,55.31,79.68,10.61,9.02,10.61,10.61,85,1.68,0,RU,25200
485,soyo,-6.13,12.37,23.11,23.29,23.11,23.11,77,4.26,5,AO,3600
486,chokurdakh,70.63,147.92,17.63,16.56,17.63,17.63,72,2.64,38,RU,39600
487,faya,18.39,42.45,22.5,23.77,22.0,23.0,83,3.1,20,SA,10800
488,ayagoz,47.97,80.44,19.43,15.92,19.43,19.43,37,3.22,0,KZ,21600
489,almenara,-16.18,-40.69,27.74,26.97,27.74,27.74,43,2.91,1,BR,-10800
490,tahlequah,35.92,-94.97,29.41,32.84,28.89,30.56,66,2.1,90,US,-18000
493,muswellbrook,-32.27,150.9,6.11,4.46,6.11,6.11,79,0.15,17,AU,36000
494,coahuayana,18.73,-103.68,26.0,29.2,26.0,26.0,78,2.04,75,MX,-18000
495,anadyr,64.75,177.48,10.75,9.05,10.56,11.0,87,2.0,47,RU,43200
496,pitimbu,-7.47,-34.81,28.0,26.69,28.0,28.0,65,7.7,40,BR,-10800
497,nisia floresta,-6.09,-35.21,29.0,25.25,29.0,29.0,54,9.8,20,BR,-10800
498,gari,59.43,62.35,14.53,12.0,14.53,14.53,66,3.03,1,RU,18000
499,gunjur,13.2,-16.73,31.0,35.52,31.0,31.0,70,2.6,40,GM,0
500,gravdal,68.12,13.5,10.0,6.19,10.0,10.0,93,5.1,75,NO,7200
501,barao de melgaco,-16.19,-55.97,35.0,34.74,35.0,35.0,24,1.0,0,BR,-14400
502,asosa,10.07,34.53,16.41,17.91,16.41,16.41,98,0.74,100,ET,10800
503,jiayuguan,39.82,98.3,22.38,20.85,22.38,22.38,40,1.56,97,CN,28800
504,arlit,18.74,7.39,38.0,36.79,38.0,38.0,19,1.92,48,NE,3600
505,araouane,18.9,-3.53,42.82,41.06,42.82,42.82,13,2.02,7,ML,0
506,aasiaat,68.71,-52.87,8.0,4.77,8.0,8.0,70,2.44,39,GL,-7200
507,rosiori,44.8,27.38,26.42,22.37,24.0,29.44,44,7.2,20,RO,10800
508,shelburne,44.08,-80.2,23.79,22.78,23.0,24.44,64,4.6,75,CA,-14400
509,grindavik,63.84,-22.43,13.0,5.35,13.0,13.0,58,9.3,20,IS,0
510,mahon,39.89,4.27,30.0,28.99,30.0,30.0,37,3.1,0,ES,7200
511,karwar,14.8,74.13,27.01,32.62,27.01,27.01,85,0.52,100,IN,19800
512,vardo,70.37,31.11,13.0,8.6,13.0,13.0,87,6.7,75,NO,7200
513,beloha,-25.17,45.05,16.02,11.82,16.02,16.02,71,6.36,16,MG,10800
514,aksu,41.12,80.26,26.48,23.32,26.48,26.48,25,2.86,29,CN,28800
515,hanzhong,33.07,107.03,22.96,25.78,22.96,22.96,90,2.11,100,CN,28800
516,hovd,48.01,91.64,19.61,19.17,19.61,19.61,55,0.82,67,MN,25200
517,caravelas,-17.71,-39.25,25.04,25.3,25.04,25.04,63,3.32,20,BR,-10800
518,isangel,-19.55,169.27,22.51,21.53,22.51,22.51,84,6.46,83,VU,39600
519,kommunisticheskiy,61.68,64.48,14.82,12.78,14.82,14.82,60,1.96,1,RU,18000
520,svetlyy,54.67,20.13,17.0,13.07,17.0,17.0,67,6.0,20,RU,7200
521,santa marta,11.24,-74.2,32.0,36.77,32.0,32.0,70,3.1,75,CO,-18000
522,solnechnyy,50.72,136.63,14.29,13.61,14.29,14.29,92,2.31,82,RU,36000
523,tabou,4.42,-7.35,25.27,26.36,25.27,25.27,81,4.98,53,CI,0
524,dargaville,-35.93,173.88,12.13,8.24,12.13,12.13,79,5.1,69,NZ,43200
525,montorio al vomano,42.58,13.64,27.78,24.25,27.78,27.78,14,1.79,26,IT,7200
526,namwala,-15.75,26.44,16.46,12.72,16.46,16.46,39,3.06,3,ZM,7200
527,iwanai,42.97,140.51,18.21,19.88,18.21,18.21,89,0.66,50,JP,32400
528,am timan,11.03,20.28,25.0,27.74,25.0,25.0,77,1.84,99,TD,3600
529,gornopravdinsk,60.05,69.9,13.39,12.21,13.39,13.39,76,1.47,8,RU,18000
530,dondo,-19.61,34.74,21.33,19.42,21.0,21.67,77,6.2,75,MZ,7200
531,bangui,4.36,18.55,27.0,30.63,27.0,27.0,74,1.5,20,CF,3600
532,salvador,13.83,-88.92,28.33,32.66,27.0,31.0,74,1.5,20,SV,-21600
533,jiujiang,29.73,115.98,27.05,30.75,27.05,27.05,87,3.62,89,CN,28800
534,palmer,42.16,-72.33,28.37,28.92,26.67,29.0,70,6.2,75,US,-14400
535,wamba,8.93,8.6,26.3,31.27,26.3,26.3,86,1.01,67,NG,3600
536,tres arroyos,-38.37,-60.28,10.26,7.3,10.26,10.26,95,4.1,100,AR,-10800
537,the valley,18.22,-63.06,26.91,29.37,26.67,27.0,83,4.6,40,AI,-14400
538,konitsa,40.05,20.76,31.0,31.12,31.0,31.0,35,1.5,91,GR,10800
539,aswan,24.09,32.91,37.06,31.52,37.06,37.06,12,5.75,0,EG,7200
540,terrace bay,48.78,-87.1,21.0,20.09,21.0,21.0,60,2.6,20,CA,-14400
541,padang,-0.95,100.35,25.8,29.03,25.8,25.8,78,1.85,100,ID,25200
542,lao cai,22.48,103.95,25.17,29.26,25.17,25.17,81,0.62,76,VN,25200
544,bumba,2.18,22.47,24.56,27.99,24.56,24.56,82,1.28,91,CD,3600
545,tigil,57.8,158.67,8.24,6.32,8.24,8.24,85,1.39,34,RU,43200
546,cururupu,-1.83,-44.87,31.34,32.12,31.34,31.34,48,3.5,47,BR,-10800
547,emba,48.83,58.14,26.01,23.65,26.01,26.01,37,3.51,49,KZ,18000
548,nyagan,62.14,65.39,15.1,13.8,15.1,15.1,60,0.99,39,RU,18000
549,mabay,6.06,124.47,25.94,29.17,25.94,25.94,78,1.95,100,PH,28800
550,bandipur,27.93,84.42,19.73,23.02,19.73,19.73,100,0.4,100,NP,20700
551,sibolga,1.74,98.78,24.46,27.47,24.46,24.46,79,1.38,87,ID,25200
552,ola,59.58,151.28,11.61,11.02,11.61,11.61,83,0.47,98,RU,39600
553,morvi,22.82,70.83,30.56,23.67,30.56,30.56,10,6.18,91,IN,19800
554,curup,-3.47,102.53,19.68,21.73,19.68,19.68,92,1.27,100,ID,25200
556,olinda,-8.01,-34.86,29.0,27.95,29.0,29.0,58,6.7,40,BR,-10800
557,meadow lake,34.8,-106.54,22.62,23.35,21.0,24.44,64,1.5,75,US,-21600
558,jojoima,7.88,-10.79,24.62,27.85,24.62,24.62,92,3.06,90,SL,0
559,serra,-20.13,-40.31,26.23,25.43,25.56,27.0,51,3.6,20,BR,-10800
561,college,64.86,-147.8,10.93,9.62,9.44,12.0,81,1.14,75,US,-28800
562,brenham,30.17,-96.4,33.04,37.35,31.67,34.44,59,2.1,40,US,-18000
563,biloela,-24.42,150.5,13.77,11.13,13.77,13.77,88,4.58,69,AU,36000
564,kushiro,42.98,144.37,16.5,15.83,16.5,16.5,98,3.89,100,JP,32400
565,lazaro cardenas,17.96,-102.2,30.07,33.8,30.07,30.07,64,1.76,93,MX,-18000
566,gizo,-8.1,156.84,27.74,30.77,27.74,27.74,75,3.08,73,SB,39600
567,vegreville,53.5,-112.05,19.64,19.27,19.64,19.64,75,2.88,30,CA,-21600
568,sao filipe,14.9,-24.5,25.94,29.55,25.94,25.94,86,2.66,68,CV,-3600
569,smithers,54.78,-127.17,14.0,12.92,14.0,14.0,76,1.54,75,CA,-25200
570,aykhal,66.0,111.5,12.0,10.34,12.0,12.0,81,2.0,90,RU,32400
571,mingyue,43.11,128.92,17.57,18.47,17.57,17.57,90,1.51,100,CN,28800
572,kamina,-8.74,24.99,21.82,19.07,21.82,21.82,28,1.65,0,CD,7200
573,halifax,44.65,-63.57,19.33,20.38,18.89,20.0,93,2.6,90,CA,-10800
574,mayumba,-3.43,10.66,23.16,24.45,23.16,23.16,77,2.71,77,GA,3600
575,rundu,-17.93,19.77,21.0,15.95,21.0,21.0,18,3.6,0,NA,7200
576,enid,36.4,-97.88,29.7,35.04,29.0,30.0,89,4.1,20,US,-18000
577,warrnambool,-38.38,142.48,5.56,3.45,5.56,5.56,84,0.89,99,AU,36000
578,conde,-7.26,-34.91,27.0,27.46,27.0,27.0,78,6.7,75,BR,-10800
579,jinan,36.67,117.0,25.56,28.34,25.56,25.56,73,1.55,98,CN,28800
580,troitskoye,52.98,84.68,15.23,14.92,15.23,15.23,81,1.32,37,RU,25200
581,anage,-14.61,-41.14,28.54,26.7,28.54,28.54,40,4.25,12,BR,-10800
582,itaituba,-4.28,-55.98,34.0,37.52,34.0,34.0,49,1.5,20,BR,-10800
583,tual,-5.67,132.75,26.18,25.16,26.18,26.18,80,8.52,26,ID,32400
584,pangnirtung,66.15,-65.71,11.0,8.24,11.0,11.0,87,3.6,90,CA,-14400
585,mackay,-21.15,149.2,17.0,15.71,17.0,17.0,82,3.6,75,AU,36000
586,seeboden,46.82,13.49,17.09,16.98,15.0,20.0,77,1.5,40,AT,7200
587,norman wells,65.28,-126.83,12.0,10.97,12.0,12.0,87,1.5,75,CA,-21600
588,narasannapeta,18.42,84.05,25.88,29.65,25.88,25.88,85,2.23,100,IN,19800
589,kalabagh,32.97,71.56,37.02,34.86,37.02,37.02,26,5.04,0,PK,18000
590,jacareacanga,-6.22,-57.75,35.77,36.62,35.77,35.77,31,1.61,33,BR,-10800
591,vitim,59.45,112.56,14.65,14.37,14.65,14.65,91,1.83,76,RU,32400
592,la palma,33.85,-118.05,18.96,18.69,18.0,20.0,72,2.1,90,US,-25200
593,yershichi,53.67,32.75,14.57,13.47,14.57,14.57,78,1.94,28,RU,10800
594,manzanares,39.0,-3.37,35.7,33.34,35.56,36.0,18,2.6,40,ES,7200
595,vestmanna,62.16,-7.17,12.0,9.22,12.0,12.0,81,3.6,78,FO,3600
596,bulgan,48.81,103.53,14.12,13.88,14.12,14.12,89,1.38,100,MN,28800
598,praia,14.92,-23.51,30.0,33.04,30.0,30.0,66,3.1,40,CV,-3600
600,severo-kurilsk,50.68,156.12,9.89,8.38,9.89,9.89,91,1.66,99,RU,39600
601,japura,-0.32,102.35,23.28,27.45,23.28,23.28,94,0.95,100,ID,25200
602,gigmoto,13.78,124.39,27.62,32.24,27.62,27.62,79,1.41,17,PH,28800
603,jaca,42.57,-0.55,32.28,30.38,30.56,33.89,29,3.58,36,ES,7200
604,benguela,-12.58,13.41,25.0,26.79,25.0,25.0,73,2.6,20,AO,3600
605,abha,18.22,42.51,22.47,24.08,22.0,23.0,83,2.6,20,SA,10800
606,kalofer,42.62,24.98,26.23,23.94,25.56,27.0,54,6.2,40,BG,10800
607,viedma,-40.81,-63.0,7.22,4.46,7.22,7.22,93,2.68,100,AR,-10800
608,corcoran,36.1,-119.56,25.64,26.33,24.0,27.22,53,1.5,1,US,-25200
609,epe,6.58,3.98,25.67,27.77,25.67,25.67,81,3.83,100,NG,3600
610,svetlogorsk,52.63,29.73,14.15,12.26,14.15,14.15,87,3.6,99,BY,10800
611,ketchikan,55.34,-131.65,13.0,11.07,13.0,13.0,93,3.6,90,US,-28800
612,inongo,-1.95,18.27,24.46,26.59,24.46,24.46,61,0.04,33,CD,3600
613,fayetteville,35.05,-78.88,33.36,34.76,32.78,34.0,49,4.1,40,US,-14400
614,nishihara,26.18,127.76,27.95,32.07,27.78,28.0,83,3.1,20,JP,32400
615,lander,42.83,-108.73,26.04,22.85,25.0,27.0,30,3.6,1,US,-21600
616,alta,69.97,23.27,9.92,4.38,9.44,11.0,87,7.2,90,NO,7200
617,tonj,7.27,28.68,22.26,25.42,22.26,22.26,94,1.64,81,SS,10800
618,barcelos,41.54,-8.62,26.01,27.31,21.0,29.44,77,4.6,0,PT,3600
619,salalah,17.02,54.09,27.0,30.8,27.0,27.0,88,3.6,40,OM,14400
620,blyznyuky,48.86,36.56,18.33,16.59,18.33,18.33,58,2.52,63,UA,10800
621,gilgit,35.92,74.31,28.91,27.73,28.91,28.91,24,0.46,2,PK,18000
622,bafq,31.61,55.41,32.41,26.1,32.41,32.41,10,5.58,0,IR,16200
623,waingapu,-9.66,120.26,22.24,21.82,22.24,22.24,80,4.98,99,ID,28800
624,gamba,-2.65,10.0,23.6,23.95,23.6,23.6,74,3.92,94,GA,3600
625,fare,-16.7,-151.02,25.3,23.89,25.3,25.3,79,8.27,7,PF,-36000
626,zlobin,45.29,14.65,28.0,30.61,28.0,28.0,65,2.1,20,HR,7200
627,rawson,-43.3,-65.1,4.17,-1.59,4.17,4.17,80,5.62,100,AR,-10800
628,tambopata,-12.73,-69.18,31.0,35.28,31.0,31.0,66,2.1,75,PE,-18000
629,urumqi,43.8,87.6,24.0,23.5,24.0,24.0,57,3.0,75,CN,28800
630,deputatskiy,69.3,139.9,17.99,17.32,17.99,17.99,57,0.77,78,RU,36000
631,tiarei,-17.53,-149.33,23.94,26.03,23.89,24.0,73,1.5,75,PF,-36000
