,City,Lat,Lon,Temp_C,Feels_like,Temp_min_C,Temp_max_C,Humidity,Wind_speed_mph,Clouds,Country,Time_zone
1,marsabit,2.33,37.99,21.52,18.35,21.52,21.52,55,5.45,55,KE,10800
2,ribeira grande,38.52,-28.7,23.0,23.1,23.0,23.0,64,2.6,40,PT,0
3,tuktoyaktuk,69.45,-133.04,13.0,6.82,13.0,13.0,58,7.2,40,CA,-21600
4,ocos,14.51,-92.19,31.53,35.41,31.0,32.0,66,3.1,40,GT,-21600
5,cayenne,4.93,-52.33,31.0,32.35,31.0,31.0,58,4.6,52,GF,-10800
6,mount gambier,-37.83,140.77,3.0,-1.02,3.0,3.0,86,3.1,99,AU,34200
7,rikitea,-23.12,-134.97,19.4,14.56,19.4,19.4,64,7.98,0,PF,-32400
8,airai,-8.93,125.41,11.4,9.76,11.4,11.4,72,1.19,53,TL,32400
9,weligama,5.97,80.42,25.82,28.69,25.82,25.82,86,3.63,96,LK,19800
10,mar del plata,-38.0,-57.56,12.98,11.39,12.78,13.33,100,3.6,90,AR,-10800
11,jamestown,42.1,-79.24,26.65,25.43,26.0,27.22,65,6.7,20,US,-14400
12,busselton,-33.65,115.33,6.49,3.68,6.11,7.22,73,1.63,0,AU,28800
13,albany,42.6,-73.97,27.79,33.18,27.22,28.89,79,0.45,66,US,-14400
14,atuona,-9.8,-139.03,25.88,23.79,25.88,25.88,75,9.03,0,PF,-34200
15,nanortalik,60.14,-45.24,8.79,6.34,8.79,8.79,91,2.63,100,GL,-7200
16,vaini,-21.2,-175.2,20.0,19.4,20.0,20.0,100,6.14,75,TO,46800
17,avarua,-21.21,-159.78,23.0,27.19,23.0,23.0,100,1.5,46,CK,-36000
18,namibe,-15.2,12.15,19.69,20.24,19.69,19.69,72,1.27,0,AO,3600
19,kapaa,22.08,-159.32,25.53,26.35,24.44,27.0,78,5.1,40,US,-36000
20,naryan-mar,67.67,53.09,20.3,17.19,20.3,20.3,68,6.35,2,RU,10800
21,lebu,-37.62,-73.65,9.41,6.28,9.41,9.41,61,2.15,81,CL,-14400
22,kruisfontein,-34.0,24.73,13.5,11.23,13.5,13.5,55,1.54,0,ZA,7200
23,bluff,-46.6,168.33,3.89,1.16,3.89,3.89,83,1.34,98,NZ,43200
25,kajaani,64.23,27.73,13.0,11.47,13.0,13.0,87,2.6,75,FI,10800
26,carnarvon,-24.87,113.63,16.0,13.99,16.0,16.0,87,4.6,0,AU,28800
27,clyde river,70.47,-68.59,9.0,4.79,9.0,9.0,61,3.6,75,CA,-14400
28,barrow,71.29,-156.79,8.0,1.9,8.0,8.0,93,7.7,90,US,-28800
29,port moresby,-9.44,147.18,24.0,25.66,24.0,24.0,94,5.1,75,PG,36000
30,komsomolskiy,40.43,71.72,28.0,27.28,28.0,28.0,32,1.0,3,UZ,18000
32,miri,4.41,114.01,23.95,28.27,23.89,24.0,100,2.1,40,MY,28800
33,chisec,15.82,-90.28,31.84,35.19,31.84,31.84,52,1.01,47,GT,-21600
34,port macquarie,-31.43,152.92,7.0,5.6,7.0,7.0,100,1.0,40,AU,36000
36,ushuaia,-54.8,-68.3,5.0,-0.84,5.0,5.0,60,5.1,75,AR,-10800
37,buraydah,26.33,43.98,38.0,35.88,38.0,38.0,35,8.2,0,SA,10800
38,kiruna,67.86,20.23,8.0,3.55,8.0,8.0,100,5.7,100,SE,7200
39,awjilah,29.11,21.29,27.82,22.43,27.82,27.82,42,9.37,0,LY,7200
40,teguise,29.06,-13.56,25.0,21.68,25.0,25.0,69,9.3,20,ES,3600
41,port augusta,-32.5,137.77,2.84,-1.5,2.78,3.0,74,3.1,0,AU,34200
42,acapulco,16.86,-99.89,31.0,34.82,31.0,31.0,70,3.6,40,MX,-18000
43,terrace,54.52,-128.6,14.0,8.93,14.0,14.0,82,7.7,90,CA,-25200
44,dikson,73.51,80.55,5.06,1.28,5.06,5.06,86,3.23,0,RU,25200
45,qaanaaq,77.48,-69.36,9.12,6.61,9.12,9.12,52,0.71,0,GL,-10800
46,saint-philippe,-21.36,55.77,15.94,11.36,10.56,19.0,63,6.2,75,RE,14400
47,nsoko,-27.03,31.95,18.0,18.54,18.0,18.0,72,0.5,0,SZ,7200
48,mitu,1.2,-70.17,27.53,33.11,27.53,27.53,85,1.0,56,CO,-18000
50,mataura,-46.19,168.86,3.89,1.16,3.89,3.89,83,1.34,100,NZ,43200
52,yellowknife,62.46,-114.35,17.09,14.78,17.0,17.22,82,5.1,75,CA,-21600
54,innisfail,-17.53,146.03,18.99,19.93,18.99,18.99,88,2.03,95,AU,36000
55,deputatskiy,69.3,139.9,20.53,20.49,20.53,20.53,56,0.7,100,RU,36000
56,hermanus,-34.42,19.23,15.0,14.26,15.0,15.0,86,2.24,0,ZA,7200
57,angoche,-16.23,39.91,20.53,20.25,20.53,20.53,78,3.55,0,MZ,7200
58,khatanga,71.97,102.5,5.48,-1.53,5.48,5.48,87,8.0,100,RU,25200
59,tessalit,20.2,1.01,36.96,36.08,36.96,36.96,20,1.42,62,ML,0
60,zaraza,9.35,-65.32,30.74,35.09,30.74,30.74,64,1.38,11,VE,-14400
61,atar,20.52,-13.05,40.08,35.64,40.08,40.08,19,7.23,0,MR,0
62,shakawe,-18.37,21.85,13.83,9.92,13.83,13.83,37,2.62,0,BW,7200
63,batagay-alyta,67.8,130.41,16.33,15.93,16.33,16.33,64,0.45,19,RU,32400
64,marawi,8.0,124.29,24.44,28.26,24.44,24.44,90,1.79,92,PH,28800
65,lerwick,60.15,-1.15,14.0,10.75,14.0,14.0,82,5.1,75,GB,3600
67,manoel urbano,-8.84,-69.26,32.88,34.98,32.88,32.88,39,0.44,100,BR,-18000
68,butaritari,3.07,172.79,27.96,29.01,27.96,27.96,79,6.79,6,KI,43200
69,luderitz,-26.65,15.16,21.0,20.07,21.0,21.0,46,1.0,0,NA,7200
70,cape town,-33.93,18.42,13.71,13.81,13.0,14.44,93,1.0,0,ZA,7200
71,new norfolk,-42.78,147.06,4.07,1.6,3.89,4.44,86,1.13,82,AU,36000
72,mount isa,-20.73,139.5,10.0,4.81,10.0,10.0,57,4.99,0,AU,36000
73,arraial do cabo,-22.97,-42.03,27.0,24.41,27.0,27.0,61,8.2,16,BR,-10800
74,ajaccio,42.0,8.92,26.0,28.01,26.0,26.0,74,3.1,0,FR,7200
75,san patricio,19.22,-104.7,30.0,34.15,30.0,30.0,79,4.1,75,MX,-18000
76,blagoveshchensk,50.27,127.53,20.0,22.53,20.0,20.0,94,1.0,100,RU,32400
77,namioka,40.71,140.59,21.4,24.33,21.11,21.67,92,1.12,92,JP,32400
78,nanga eboko,4.68,12.37,20.87,23.54,20.87,20.87,96,1.61,87,CM,3600
79,nikolskoye,59.7,30.79,13.79,10.42,13.0,14.44,66,4.0,20,RU,10800
80,lavrentiya,65.58,-171.0,12.93,8.52,12.93,12.93,53,4.31,98,RU,43200
81,kavaratti,10.57,72.64,28.07,31.1,28.07,28.07,76,3.51,100,IN,19800
82,mehamn,71.04,27.85,10.0,9.35,10.0,10.0,100,1.0,90,NO,7200
83,touros,-5.2,-35.46,28.0,27.59,28.0,28.0,61,5.7,75,BR,-10800
84,bambous virieux,-20.34,57.76,20.0,14.88,20.0,20.0,60,8.2,75,MU,14400
86,taoudenni,22.68,-3.98,42.5,40.31,42.5,42.5,11,1.76,3,ML,0
87,upernavik,72.79,-56.15,7.96,3.03,7.96,7.96,74,5.06,80,GL,-7200
88,shahr-e babak,30.12,55.12,25.42,18.64,25.42,25.42,16,6.41,0,IR,16200
89,punta arenas,-53.15,-70.92,3.94,-2.26,3.89,4.0,80,6.2,40,CL,-10800
90,kouqian,43.64,126.46,20.42,20.67,20.42,20.42,67,1.49,100,CN,28800
92,hovd,48.01,91.64,17.72,17.81,17.72,17.72,65,0.35,99,MN,25200
93,maragogi,-9.01,-35.22,24.99,25.3,24.99,24.99,74,4.86,57,BR,-10800
94,kailua,21.4,-157.74,25.74,27.36,25.0,27.0,78,4.1,40,US,-36000
95,hithadhoo,-0.6,73.08,28.57,32.37,28.57,28.57,68,1.34,100,MV,18000
96,guerrero negro,27.98,-114.06,23.11,20.04,23.11,23.11,56,6.12,5,MX,-21600
97,hobart,-42.88,147.33,3.81,-0.38,2.22,5.0,75,3.1,63,AU,36000
98,renqiu,38.7,116.09,22.84,23.88,22.84,22.84,73,2.35,0,CN,28800
99,manica,49.0,-1.17,19.0,17.04,19.0,19.0,63,3.6,37,FR,7200
100,thompson,55.74,-97.86,24.0,25.35,24.0,24.0,73,2.6,75,CA,-18000
102,buta,2.79,24.73,22.03,25.67,22.03,22.03,92,0.54,99,CD,7200
103,cabo san lucas,22.89,-109.91,30.26,30.08,28.0,32.0,65,7.7,5,MX,-21600
104,port alfred,-33.59,26.89,17.78,14.12,17.78,17.78,45,3.82,0,ZA,7200
105,port elizabeth,-33.92,25.57,14.0,13.27,14.0,14.0,82,1.5,0,ZA,7200
106,hilo,19.73,-155.09,21.62,23.63,19.44,23.0,88,2.1,90,US,-36000
107,bayir,37.27,28.22,29.0,27.73,29.0,29.0,51,5.7,0,TR,10800
108,tasiilaq,65.61,-37.64,4.0,-0.91,4.0,4.0,86,4.6,75,GL,-7200
109,otukpo,7.19,8.13,23.0,25.76,23.0,23.0,95,2.89,100,NG,3600
110,provideniya,64.38,-173.3,11.24,7.2,11.24,11.24,57,3.63,88,RU,43200
111,saint austell,50.34,-4.77,17.11,14.39,16.11,18.33,93,6.7,100,GB,3600
113,scarborough,54.28,-0.4,17.19,18.0,16.67,17.78,89,1.34,84,GB,3600
114,mahebourg,-20.41,57.7,20.0,14.88,20.0,20.0,60,8.2,75,MU,14400
116,mishan,45.55,131.88,17.86,19.53,17.86,17.86,87,0.27,3,CN,28800
117,aromashevo,56.86,68.64,11.29,8.12,11.29,11.29,78,3.73,0,RU,18000
118,tateyama,34.98,139.87,22.78,27.59,22.78,22.78,100,0.44,100,JP,32400
119,chuy,-33.7,-53.46,20.37,22.11,20.37,20.37,91,2.03,100,UY,-10800
120,visaginas,55.6,26.42,10.32,8.22,10.32,10.32,92,2.72,48,LT,10800
121,pitanga,-24.76,-51.76,22.83,21.76,22.83,22.83,47,1.96,82,BR,-10800
122,hofn,64.25,-15.21,8.58,2.94,8.58,8.58,81,6.6,99,IS,0
123,puerto ayora,-0.74,-90.35,23.99,19.16,22.78,26.0,65,10.3,20,EC,-21600
124,majenang,-7.3,108.76,22.55,25.98,22.55,22.55,88,0.7,100,ID,25200
125,kahului,20.89,-156.47,26.01,24.43,24.44,28.0,51,4.6,20,US,-36000
126,okhotsk,59.38,143.3,12.74,12.14,12.74,12.74,87,1.17,100,RU,36000
127,pandi,14.89,120.86,28.16,33.11,26.11,31.11,83,2.1,96,PH,28800
129,lompoc,34.64,-120.46,18.02,17.45,17.0,18.89,72,2.1,1,US,-25200
130,miracema do tocantins,-9.56,-48.4,35.12,34.02,35.12,35.12,25,2.51,91,BR,-10800
131,tiksi,71.69,128.87,14.9,12.49,14.9,14.9,82,4.27,95,RU,32400
132,padang,-0.95,100.35,25.26,28.03,25.26,25.26,78,2.12,100,ID,25200
133,port blair,11.67,92.75,27.9,31.58,27.9,27.9,74,2.1,45,IN,19800
134,torbay,47.67,-52.73,23.98,18.2,22.78,25.0,44,8.7,75,CA,-9000
135,tank,32.22,70.38,35.98,37.54,35.98,35.98,35,1.81,0,PK,18000
136,mangrol,21.12,70.12,28.75,31.52,28.75,28.75,83,5.73,100,IN,19800
137,kodiak,57.79,-152.41,14.0,12.27,14.0,14.0,71,2.1,1,US,-28800
139,khash,28.22,61.22,23.3,21.32,23.3,23.3,34,1.68,0,IR,16200
141,tottori,35.5,134.23,22.63,25.28,22.63,22.63,88,1.86,100,JP,32400
142,nuevo casas grandes,30.42,-107.92,23.33,25.94,23.33,23.33,80,1.34,3,MX,-21600
143,tutoia,-2.76,-42.27,27.69,28.47,27.69,27.69,59,3.46,32,BR,-10800
144,macapa,0.04,-51.07,31.0,35.06,31.0,31.0,74,4.1,75,BR,-10800
145,the valley,18.22,-63.06,27.97,28.11,27.0,29.0,74,7.2,40,AI,-14400
146,longyearbyen,78.22,15.64,9.0,5.54,9.0,9.0,81,3.6,90,SJ,7200
147,haines junction,60.75,-137.51,14.51,13.23,14.51,14.51,67,1.32,100,CA,-25200
148,sorong,-0.88,131.25,25.37,28.54,25.37,25.37,87,3.0,19,ID,32400
149,fairbanks,64.84,-147.72,12.35,10.99,10.0,14.44,87,2.1,90,US,-28800
150,phimai,15.22,102.49,26.59,29.47,26.59,26.59,75,2.44,82,TH,25200
151,nyurba,63.28,118.33,13.76,13.81,13.76,13.76,89,0.8,33,RU,32400
152,yar-sale,66.83,70.83,9.43,5.74,9.43,9.43,73,3.62,21,RU,18000
153,diamantino,-14.41,-56.45,35.26,33.99,35.26,35.26,21,1.72,0,BR,-14400
154,bardiyah,31.76,25.09,23.3,23.26,23.3,23.3,80,5.1,0,LY,7200
155,saskylakh,71.92,114.08,9.18,7.15,9.18,9.18,95,2.38,83,RU,32400
156,syracuse,37.09,15.28,28.58,31.93,27.78,30.0,74,3.1,0,IT,7200
157,santa isabel do rio negro,-0.41,-65.02,31.06,35.6,31.06,31.06,63,1.14,46,BR,-14400
159,belmonte,-15.86,-38.88,25.0,26.37,25.0,25.0,69,2.6,40,BR,-10800
160,vila franca do campo,37.72,-25.43,21.0,20.4,21.0,21.0,68,3.1,40,PT,0
161,madang,-5.22,145.8,24.58,28.77,24.58,24.58,89,1.22,8,PG,36000
162,araouane,18.9,-3.53,40.45,35.73,40.45,40.45,18,7.41,83,ML,0
163,praia da vitoria,38.73,-27.07,24.0,24.01,24.0,24.0,57,2.26,20,PT,0
164,cabedelo,-6.98,-34.83,28.0,26.69,28.0,28.0,65,7.7,40,BR,-10800
165,bengkulu,-3.8,102.27,24.14,27.59,24.14,24.14,89,1.94,100,ID,25200
166,nouadhibou,20.93,-17.03,23.0,19.35,23.0,23.0,78,9.8,4,MR,0
167,cidreira,-30.18,-50.21,20.08,18.76,20.08,20.08,74,4.35,99,BR,-10800
168,fortuna,40.6,-124.16,15.43,13.93,15.0,16.11,93,4.1,75,US,-25200
169,kidal,18.44,1.41,37.69,36.03,37.69,37.69,22,3.38,81,ML,0
170,sao joao da barra,-21.64,-41.05,28.0,26.4,28.0,28.0,48,5.1,0,BR,-10800
171,myaundzha,63.05,147.19,16.6,16.4,16.6,16.6,66,0.43,96,RU,39600
172,sheridan,44.83,-106.92,30.88,26.54,30.56,31.11,22,5.1,40,US,-21600
173,luanda,-8.84,13.23,22.0,22.62,22.0,22.0,78,3.1,20,AO,3600
174,gurupi,-11.73,-49.07,33.42,32.45,33.42,33.42,27,2.2,85,BR,-10800
175,mayor pablo lagerenza,-19.93,-60.77,33.68,31.94,33.68,33.68,23,2.41,4,PY,-14400
177,sotouboua,8.57,0.98,23.04,26.69,23.04,23.04,94,1.52,96,TG,0
178,castro,-24.79,-50.01,22.5,21.43,22.5,22.5,52,2.48,3,BR,-10800
179,bandarbeyla,9.49,50.81,24.59,19.18,24.59,24.59,81,13.78,4,SO,10800
180,victoria,22.29,114.16,28.53,33.92,27.78,28.89,83,1.79,91,HK,28800
181,atasu,48.68,71.64,23.47,21.45,23.47,23.47,45,3.29,100,KZ,21600
182,xai-xai,-25.05,33.64,18.27,17.83,18.27,18.27,84,3.21,83,MZ,7200
183,zabaykalsk,49.63,117.32,19.63,18.95,19.63,19.63,62,1.92,9,RU,28800
184,saldanha,-33.01,17.94,18.0,17.31,18.0,18.0,59,1.0,0,ZA,7200
185,coquimbo,-29.95,-71.34,14.0,9.06,14.0,14.0,58,5.7,98,CL,-14400
186,asfi,32.3,-9.24,24.06,21.4,24.06,24.06,75,8.65,0,MA,3600
187,kuching,1.55,110.33,23.95,29.0,23.89,24.0,100,1.06,40,MY,28800
189,gucheng,35.91,111.32,21.68,22.99,21.68,21.68,74,1.43,100,CN,28800
190,kearney,40.7,-99.08,30.0,28.7,29.44,31.0,66,9.3,1,US,-18000
191,abu kamal,34.45,40.92,34.74,30.78,34.74,34.74,13,3.32,0,SY,10800
192,great yarmouth,52.61,1.73,22.42,21.76,22.22,22.78,57,2.49,88,GB,3600
193,sao felix do xingu,-6.64,-51.99,34.43,34.49,34.43,34.43,31,2.13,0,BR,-10800
194,yongan,39.7,113.69,16.97,16.01,16.97,16.97,73,2.3,1,CN,28800
195,yazman,29.12,71.74,37.49,38.19,37.49,37.49,36,4.18,0,PK,18000
196,noumea,-22.28,166.46,17.0,17.18,17.0,17.0,82,1.5,0,NC,39600
197,springdale,36.19,-94.13,30.21,34.48,28.89,31.67,66,1.5,75,US,-18000
198,georgetown,5.41,100.34,26.84,32.36,26.67,27.0,88,1.0,20,MY,28800
199,sayyan,15.17,44.32,18.4,17.47,18.4,18.4,64,1.99,61,YE,10800
200,rock sound,24.9,-76.2,28.69,28.79,28.69,28.69,77,8.38,98,BS,-14400
201,boguchar,49.94,40.55,15.39,14.14,15.39,15.39,73,2.07,49,RU,10800
202,yangambi,0.81,24.43,24.87,27.59,24.87,24.87,74,1.33,100,CD,7200
203,finschhafen,-6.6,147.87,25.38,27.04,25.38,25.38,79,3.94,0,PG,36000
204,geraldton,-28.77,114.6,6.0,3.4,6.0,6.0,93,2.1,0,AU,28800
205,irbil,36.19,44.01,34.0,31.57,34.0,34.0,15,1.5,0,IQ,10800
206,ilulissat,69.22,-51.1,12.0,9.08,12.0,12.0,46,1.5,75,GL,-7200
208,sitka,57.05,-135.33,13.0,11.12,13.0,13.0,87,3.1,90,US,-28800
209,chibombo,-14.66,28.07,13.35,8.63,13.35,13.35,44,4.2,0,ZM,7200
210,atyrau,47.12,51.88,24.0,20.73,24.0,24.0,36,4.0,40,KZ,18000
211,jalu,29.03,21.55,28.47,22.68,28.47,28.47,40,9.86,0,LY,7200
212,bodinayakkanur,10.02,77.35,25.54,28.71,25.54,25.54,72,0.82,100,IN,19800
213,kaitangata,-46.28,169.85,4.44,1.84,4.44,4.44,73,0.89,91,NZ,43200
214,andenes,69.31,16.12,10.0,4.02,10.0,10.0,93,8.2,75,NO,7200
215,katsuura,35.13,140.3,22.3,26.03,21.11,22.78,92,0.6,100,JP,32400
216,keskin,39.67,33.61,23.33,19.54,23.33,23.33,42,5.36,0,TR,10800
217,port lincoln,-34.73,135.87,11.14,4.02,11.14,11.14,53,7.76,0,AU,34200
218,ketchikan,55.34,-131.65,13.0,10.72,13.0,13.0,93,4.1,90,US,-28800
219,karratha,-20.74,116.85,20.45,18.71,20.45,20.45,49,2.31,0,AU,28800
220,vila,42.03,-8.16,25.83,24.94,22.22,30.0,61,5.1,0,PT,3600
221,husavik,66.04,-17.34,9.0,2.61,9.0,9.0,70,7.2,75,IS,0
222,bairiki,1.33,172.98,28.0,30.33,28.0,28.0,74,4.1,20,KI,43200
223,luau,-10.71,22.22,18.49,14.7,18.49,18.49,28,2.5,0,AO,3600
224,lakatoro,-16.1,167.42,23.85,25.01,23.85,23.85,83,4.17,52,VU,39600
225,saint-francois,46.42,3.91,26.86,24.3,25.56,28.0,28,2.6,100,FR,7200
226,poum,-20.23,164.02,21.93,19.23,21.93,21.93,80,8.05,0,NC,39600
227,harvard,42.42,-88.61,24.44,24.84,23.89,25.0,68,3.5,44,US,-18000
228,san borja,-14.82,-66.85,33.63,33.63,33.63,33.63,36,3.1,5,BO,-14400
229,port hardy,50.7,-127.42,16.0,14.09,16.0,16.0,77,3.6,75,CA,-25200
230,walvis bay,-22.96,14.51,22.97,19.75,20.56,25.0,16,1.0,0,NA,7200
231,molokovo,58.17,36.76,10.23,8.26,10.23,10.23,88,2.27,39,RU,10800
232,liepaja,56.54,21.04,13.0,10.58,13.0,13.0,76,3.1,18,LV,10800
233,codrington,-38.27,141.97,3.46,-0.85,3.46,3.46,88,3.69,100,AU,36000
234,bethel,41.37,-73.41,28.98,30.45,28.33,30.0,66,4.6,20,US,-14400
236,pangnirtung,66.15,-65.71,11.0,6.77,11.0,11.0,87,5.7,90,CA,-14400
239,havre-saint-pierre,50.23,-63.6,23.0,20.66,23.0,23.0,49,4.1,1,CA,-14400
240,whitefish,48.41,-114.34,26.95,23.94,26.67,27.22,39,5.1,1,US,-21600
241,nazare,-13.04,-39.01,25.08,26.35,25.08,25.08,71,3.09,0,BR,-10800
242,burnie,-41.07,145.92,5.0,1.67,5.0,5.0,78,2.24,88,AU,36000
243,saint anthony,45.02,-93.22,23.85,22.82,22.78,25.0,60,4.1,75,US,-18000
244,barcelona,41.39,2.16,27.71,30.12,27.22,28.33,61,1.5,0,ES,7200
245,lindi,-10.0,39.72,19.79,19.28,19.79,19.79,66,2.18,0,TZ,10800
246,bend,44.06,-121.32,23.18,19.56,22.22,24.44,31,3.6,1,US,-25200
247,constitucion,-35.33,-72.42,11.44,9.36,11.44,11.44,69,1.64,17,CL,-14400
248,te anau,-45.42,167.72,1.42,-1.65,1.42,1.42,87,1.44,64,NZ,43200
249,tarakan,3.3,117.63,24.97,29.13,24.97,24.97,87,1.28,100,ID,28800
251,bredasdorp,-34.53,20.04,13.0,12.12,13.0,13.0,93,2.1,0,ZA,7200
253,cumra,37.57,32.77,24.0,21.07,24.0,24.0,33,3.1,0,TR,10800
254,saint george,37.1,-113.58,34.0,32.01,34.0,34.0,21,2.38,1,US,-21600
255,roma,43.21,-75.46,26.43,28.3,26.11,27.0,74,3.6,75,US,-14400
256,dzhebariki-khaya,62.22,135.8,13.4,12.83,13.4,13.4,76,0.6,0,RU,32400
257,alekseyevka,50.63,38.69,14.91,13.58,14.91,14.91,77,2.33,0,RU,10800
258,farafangana,-22.82,47.83,18.38,15.69,18.38,18.38,80,6.08,45,MG,10800
259,ballina,-28.87,153.57,14.39,13.24,13.89,15.0,93,3.1,90,AU,36000
260,prince rupert,54.32,-130.32,12.0,10.8,12.0,12.0,100,2.6,90,CA,-25200
261,diego de almagro,-26.37,-70.05,15.77,10.05,15.77,15.77,28,4.82,0,CL,-14400
262,boende,-0.22,20.87,25.89,28.15,25.89,25.89,60,0.48,40,CD,3600
264,vraca,43.84,18.4,21.0,22.32,21.0,21.0,83,2.1,75,BA,7200
265,westport,41.14,-73.36,29.54,31.26,27.78,31.11,74,6.2,1,US,-14400
266,leningradskiy,69.38,178.42,7.88,2.16,7.88,7.88,71,6.02,72,RU,43200
267,ouesso,1.61,16.05,25.31,27.68,25.31,25.31,68,1.21,100,CG,3600
268,mashivka,49.44,34.87,15.34,14.0,15.34,15.34,66,1.61,13,UA,10800
269,champerico,14.3,-91.92,31.0,34.58,31.0,31.0,66,3.1,40,GT,-21600
270,ancud,-41.87,-73.82,8.0,3.78,8.0,8.0,65,3.6,0,CL,-14400
271,klaksvik,62.23,-6.59,11.0,9.29,11.0,11.0,87,2.1,40,FO,3600
272,severo-kurilsk,50.68,156.12,9.65,8.1,9.65,9.65,92,1.69,100,RU,39600
273,gizo,-8.1,156.84,27.85,30.48,27.85,27.85,74,3.56,49,SB,39600
274,robertsport,6.75,-11.37,24.63,24.47,24.63,24.63,87,7.18,100,LR,0
275,sladkovo,55.53,70.34,14.27,10.07,14.27,14.27,69,5.56,89,RU,18000
276,norman wells,65.28,-126.83,15.0,12.87,15.0,15.0,72,3.1,75,CA,-21600
277,benguela,-12.58,13.41,20.21,22.35,20.21,20.21,88,1.03,8,AO,3600
278,nome,64.5,-165.41,8.95,4.78,8.89,9.0,81,4.6,90,US,-28800
279,zalantun,48.0,122.72,20.43,20.33,20.43,20.43,54,0.53,100,CN,28800
281,aksarka,66.56,67.8,9.94,7.24,9.94,9.94,72,2.29,56,RU,18000
282,wencheng,33.06,113.8,22.22,24.34,22.22,22.22,84,1.84,100,CN,28800
283,batemans bay,-35.72,150.18,5.55,3.24,2.78,6.67,97,1.72,28,AU,36000
284,labuhan,-6.88,112.21,24.52,26.65,24.52,24.52,84,3.39,93,ID,25200
285,kapoeta,4.77,33.59,23.21,24.52,23.21,23.21,69,1.64,0,SS,10800
286,takhtamygda,54.1,123.57,17.49,18.35,17.49,17.49,96,2.08,98,RU,32400
287,petropavlovsk-kamchatskiy,53.05,158.65,12.0,11.92,12.0,12.0,100,1.0,20,RU,43200
288,banda aceh,5.56,95.32,25.67,28.69,25.67,25.67,76,1.75,89,ID,25200
289,bandundu,-3.32,17.37,30.4,30.81,30.4,30.4,34,0.63,92,CD,3600
290,belaya gora,68.53,146.42,25.23,25.38,25.23,25.23,50,1.62,96,RU,39600
291,riyadh,24.69,46.72,36.0,36.78,36.0,36.0,32,2.1,0,SA,10800
292,alta floresta,-9.88,-56.09,35.0,34.73,35.0,35.0,30,2.6,40,BR,-14400
293,brindisi,40.58,17.67,28.68,32.54,25.0,31.0,83,4.1,0,IT,7200
294,ponta do sol,32.67,-17.1,21.3,18.7,20.0,23.0,73,6.7,20,PT,3600
295,nichinan,31.6,131.37,25.0,30.48,25.0,25.0,100,1.34,100,JP,32400
296,dong hoi,17.48,106.6,26.94,30.77,26.94,26.94,75,1.33,75,VN,25200
297,praia,14.92,-23.51,29.0,31.35,29.0,29.0,70,4.1,75,CV,-3600
298,shelburne,44.08,-80.2,24.49,23.69,24.0,25.0,60,4.1,20,CA,-14400
299,amapa,1.0,-52.0,26.28,31.55,26.28,26.28,93,1.7,100,BR,-10800
300,comodoro rivadavia,-45.87,-67.5,5.0,1.05,5.0,5.0,65,2.6,0,AR,-10800
301,chulman,56.85,124.91,13.85,12.47,13.85,13.85,89,2.89,100,RU,32400
302,kununurra,-15.77,128.73,13.0,9.87,13.0,13.0,39,1.5,0,AU,28800
303,ayan,56.45,138.17,11.24,9.26,11.24,11.24,79,2.07,84,RU,36000
304,knysna,-34.04,23.05,13.0,12.46,13.0,13.0,100,2.1,0,ZA,7200
305,usvyaty,55.75,30.75,11.1,9.65,11.1,11.1,91,2.01,100,RU,10800
306,chilca,-12.52,-76.74,18.0,16.72,18.0,18.0,72,3.1,75,PE,-18000
307,chokurdakh,70.63,147.92,18.95,17.81,18.95,18.95,65,2.61,16,RU,39600
309,sao gabriel da cachoeira,-0.13,-67.09,28.0,32.23,28.0,28.0,78,2.1,40,BR,-14400
310,esso,55.93,158.7,9.94,8.19,9.94,9.94,79,1.33,47,RU,43200
311,hambantota,6.12,81.12,24.0,27.65,24.0,24.0,100,3.1,40,LK,19800
312,stornoway,58.21,-6.39,15.0,12.45,15.0,15.0,77,4.1,38,GB,3600
313,lakes entrance,-37.88,147.98,0.0,-3.49,0.0,0.0,95,2.0,0,AU,36000
314,huilong,31.81,121.66,26.67,29.0,26.67,26.67,84,4.76,79,CN,28800
315,anadyr,64.75,177.48,11.81,9.68,11.67,12.0,87,3.0,97,RU,43200
316,stromness,58.97,-3.3,12.87,12.29,12.78,13.0,100,2.1,96,GB,3600
318,si sa ket,15.11,104.33,30.56,34.17,30.56,30.56,73,4.15,100,TH,25200
319,muborak,39.26,65.15,31.12,25.52,31.12,31.12,24,7.38,77,UZ,18000
320,cockburn town,21.46,-71.14,28.44,28.09,28.44,28.44,77,8.82,100,TC,-14400
321,maceio,-9.67,-35.74,27.0,27.05,27.0,27.0,65,5.1,40,BR,-10800
322,erenhot,43.65,111.98,28.14,24.26,28.14,28.14,34,5.91,97,CN,28800
323,mezen,65.85,44.24,18.21,17.65,18.21,18.21,87,3.64,99,RU,10800
324,shimoda,34.67,138.95,20.0,21.3,20.0,20.0,95,2.88,99,JP,32400
325,perth,-31.93,115.83,5.68,2.98,5.0,6.11,100,2.45,0,AU,28800
326,sur,22.57,59.53,29.6,28.96,29.6,29.6,69,8.64,82,OM,14400
327,tura,25.52,90.22,23.85,27.62,23.85,23.85,97,2.38,100,IN,19800
328,bara,10.37,10.73,25.33,27.45,25.33,25.33,80,3.41,95,NG,3600
329,kihei,20.79,-156.47,25.91,24.3,24.44,28.0,51,4.6,20,US,-36000
330,dunda,-8.12,34.25,16.43,14.64,16.43,16.43,52,1.42,1,TZ,10800
331,sahy,48.07,18.95,22.86,24.74,21.0,23.89,68,0.5,0,SK,7200
332,gadung,6.8,124.02,26.49,29.59,26.49,26.49,81,3.03,100,PH,28800
333,ostrovnoy,68.05,39.51,17.63,15.88,17.63,17.63,81,4.47,100,RU,10800
334,cherskiy,68.75,161.3,17.31,15.02,17.31,17.31,67,3.79,30,RU,39600
335,leshukonskoye,64.9,45.76,17.36,16.86,17.36,17.36,88,3.2,100,RU,10800
336,lagoa,39.05,-27.98,21.08,21.81,21.08,21.08,69,1.35,0,PT,0
337,yairipok,24.67,94.07,21.12,24.71,21.12,21.12,95,0.35,100,IN,19800
338,chapais,49.78,-74.85,24.0,20.31,24.0,24.0,36,4.6,40,CA,-14400
339,krasnokamensk,50.1,118.04,20.32,21.09,20.32,20.32,70,1.03,100,RU,32400
340,krasnyy oktyabr,56.12,38.88,11.18,9.56,11.18,11.18,87,2.04,0,RU,10800
341,natal,-5.79,-35.21,28.52,26.72,28.0,29.0,62,8.2,40,BR,-10800
342,lahij,13.17,44.58,31.02,32.49,31.02,31.02,50,2.75,0,YE,10800
343,buala,-8.14,159.59,26.95,29.22,26.95,26.95,81,4.58,100,SB,39600
344,la ronge,55.1,-105.28,23.0,24.15,23.0,23.0,83,3.6,40,CA,-21600
345,olinda,-8.01,-34.86,28.0,27.24,28.0,28.0,61,6.2,40,BR,-10800
346,sobolevo,54.43,31.9,11.19,8.95,11.19,11.19,86,2.87,0,RU,10800
347,buenavista,8.98,125.41,24.57,27.89,24.57,24.57,86,2.03,100,PH,28800
348,helong,42.54,129.0,16.31,17.06,16.31,16.31,89,0.98,100,CN,28800
350,beringovskiy,63.05,179.32,9.48,6.86,9.48,9.48,77,2.32,99,RU,43200
351,bonfim,3.08,-59.95,30.77,33.66,30.77,30.77,60,2.65,100,BR,-14400
352,christchurch,-43.53,172.63,-3.0,-5.86,-3.0,-3.0,92,0.5,69,NZ,43200
353,nelson bay,-32.72,152.15,4.88,2.26,4.0,5.56,100,2.1,40,AU,36000
354,ola,59.58,151.28,13.62,13.09,13.62,13.62,78,0.76,100,RU,39600
355,araceli,10.55,119.99,28.67,33.71,28.67,28.67,71,0.19,100,PH,28800
356,east london,-33.02,27.91,18.26,14.91,18.26,18.26,50,4.01,0,ZA,7200
357,limbang,4.75,115.0,25.0,29.75,25.0,25.0,94,1.5,75,MY,28800
358,ribeira brava,32.65,-17.07,21.3,18.7,20.0,23.0,73,6.7,20,PT,3600
359,santa rosa,14.31,121.11,28.08,32.98,26.11,31.11,83,2.1,100,PH,28800
360,sistranda,63.73,8.83,12.38,8.17,12.0,12.78,71,5.1,40,NO,7200
361,sinegorye,62.08,150.48,16.97,16.11,16.97,16.97,61,1.07,100,RU,39600
362,kirkwall,58.98,-2.96,12.91,12.34,12.78,13.0,100,2.1,79,GB,3600
363,hasaki,35.73,140.83,21.07,24.6,21.0,21.11,100,0.99,40,JP,32400
364,west plains,36.73,-91.85,31.33,34.24,31.0,31.67,58,2.6,20,US,-18000
365,negara,-8.32,114.6,23.15,24.34,23.15,23.15,85,3.92,100,ID,28800
366,mezhdurechensk,53.69,88.06,14.03,14.33,14.03,14.03,91,0.71,100,RU,25200
367,baryatino,54.31,34.52,10.48,8.44,10.48,10.48,91,2.63,4,RU,10800
368,elko,41.0,-115.5,28.5,22.28,26.67,30.56,12,5.36,99,US,-25200
369,juneau,58.3,-134.42,12.9,9.59,12.78,13.0,87,5.1,90,US,-28800
370,cairns,-16.92,145.77,20.0,19.76,20.0,20.0,77,3.1,75,AU,36000
371,olafsvik,64.89,-23.71,9.41,2.2,9.41,9.41,68,8.37,0,IS,0
372,karpathos,35.51,27.21,24.0,19.89,24.0,24.0,83,11.8,3,GR,10800
373,shache,38.42,77.24,23.76,19.94,23.76,23.76,22,2.78,0,CN,28800
374,gryazi,52.5,39.94,15.0,12.86,15.0,15.0,58,2.0,0,RU,10800
375,whitehorse,60.72,-135.05,10.72,9.62,10.56,11.0,93,1.5,90,CA,-25200
376,zhanaozen,43.3,52.8,25.75,22.07,25.75,25.75,35,4.99,0,KZ,18000
377,san cristobal,7.77,-72.22,32.0,27.74,32.0,32.0,40,9.3,75,VE,-14400
378,havoysund,71.0,24.66,9.0,6.61,9.0,9.0,100,3.1,90,NO,7200
379,kita,13.03,-9.49,26.46,31.48,26.46,26.46,81,0.26,100,ML,0
380,dauriya,49.93,116.87,20.22,19.3,20.22,20.22,68,3.18,43,RU,32400
382,cotonou,6.37,2.42,26.0,28.16,26.0,26.0,88,5.1,20,BJ,3600
383,mana,5.66,-53.78,27.71,30.52,27.71,27.71,80,4.24,96,GF,-10800
385,troitsko-pechorsk,62.71,56.2,17.35,14.51,17.35,17.35,54,3.37,100,RU,10800
386,souillac,-20.52,57.52,20.0,14.88,20.0,20.0,60,8.2,75,MU,14400
387,vao,-22.67,167.48,20.54,16.97,20.54,20.54,79,8.36,0,NC,39600
388,dalbandin,28.89,64.41,30.02,27.35,30.02,30.02,34,4.89,0,PK,18000
389,moree,-29.47,149.85,6.0,0.51,6.0,6.0,81,5.7,0,AU,36000
390,bohuslav,49.55,30.87,16.23,14.82,16.23,16.23,64,1.85,100,UA,10800
391,iacobeni,47.43,25.32,16.11,15.99,16.11,16.11,72,0.66,64,RO,10800
392,pevek,69.7,170.31,9.11,4.88,9.11,9.11,73,4.31,67,RU,43200
393,paamiut,61.99,-49.67,8.27,6.2,8.27,8.27,95,2.13,100,GL,-7200
394,lere,10.39,8.57,22.16,24.56,22.16,22.16,91,2.28,100,NG,3600
395,bubaque,11.28,-15.83,27.24,28.42,27.24,27.24,83,6.71,100,GW,0
396,florence,43.77,11.25,27.76,27.65,26.11,29.0,58,4.6,0,IT,7200
397,dehloran,32.69,47.27,37.1,33.42,37.1,37.1,11,2.8,0,IR,16200
398,tongren,27.72,109.19,24.47,28.65,24.47,24.47,85,0.58,100,CN,28800
399,kuloy,61.03,42.49,13.89,13.56,13.89,13.89,96,1.93,100,RU,10800
400,yerofey pavlovich,53.97,121.97,17.41,17.25,17.41,17.41,96,3.5,100,RU,32400
401,talnakh,69.49,88.4,8.0,-1.75,8.0,8.0,75,12.0,100,RU,25200
402,sisimiut,66.94,-53.67,12.36,9.23,12.36,12.36,68,3.35,9,GL,-7200
403,longkou,37.65,120.33,22.43,20.8,22.43,22.43,84,7.33,0,CN,28800
404,jos,9.92,8.9,20.27,22.77,20.27,20.27,90,0.78,100,NG,3600
405,kavieng,-2.57,150.8,28.19,30.99,28.19,28.19,75,3.76,25,PG,36000
406,yangjiang,21.85,111.97,26.57,31.32,26.57,26.57,84,1.22,21,CN,28800
407,isangel,-19.55,169.27,22.43,21.82,22.43,22.43,84,5.87,82,VU,39600
408,yarim,14.3,44.38,16.59,16.88,16.59,16.59,79,0.88,3,YE,10800
409,gazojak,41.19,61.4,27.81,25.74,27.81,27.81,39,4.1,57,TM,18000
410,ust-ilimsk,58.0,102.66,11.34,9.97,11.34,11.34,88,1.8,0,RU,28800
411,lorengau,-2.02,147.27,27.84,30.37,27.84,27.84,79,4.57,29,PG,36000
413,nakusp,50.25,-117.8,21.67,21.76,21.67,21.67,59,1.34,0,CA,-25200
414,machinga,-15.17,35.3,13.24,12.2,13.24,13.24,83,1.72,6,MW,7200
415,gamba,-2.65,10.0,22.51,23.53,22.51,22.51,80,3.08,100,GA,3600
416,aykhal,66.0,111.5,10.0,8.12,10.0,10.0,87,2.0,75,RU,32400
417,norrtalje,59.76,18.7,17.19,15.74,16.11,18.33,54,1.34,100,SE,7200
418,ruteng,-8.61,120.47,13.89,14.36,13.89,13.89,99,1.01,100,ID,28800
419,namatanai,-3.67,152.43,26.27,29.5,26.27,26.27,83,2.99,6,PG,36000
420,sorland,67.67,12.69,11.0,2.24,11.0,11.0,81,11.8,75,NO,7200
421,marrakesh,31.63,-8.01,39.0,36.38,39.0,39.0,20,4.6,20,MA,3600
422,yerbogachen,61.28,108.01,11.75,10.32,11.75,11.75,94,2.43,0,RU,28800
423,dibrugarh,27.48,94.9,24.45,28.62,24.45,24.45,97,2.3,99,IN,19800
424,palana,59.12,159.97,9.95,7.47,9.95,9.95,73,2.04,0,RU,43200
425,lubao,14.92,120.55,27.38,32.13,24.0,31.11,94,3.6,40,PH,28800
426,fort nelson,58.81,-122.7,15.0,14.9,15.0,15.0,82,1.0,90,CA,-25200
427,san quintin,30.48,-115.95,21.06,18.3,21.06,21.06,63,5.62,0,MX,-25200
428,dumai,1.68,101.45,23.28,27.7,23.28,23.28,97,1.0,100,ID,25200
429,vestmannaeyjar,63.44,-20.27,10.79,5.47,10.79,10.79,86,7.12,70,IS,0
430,ucluelet,48.93,-125.55,14.99,14.39,14.0,15.56,93,2.6,90,CA,-25200
431,esperance,-33.87,121.9,8.0,4.21,8.0,8.0,87,4.1,40,AU,28800
432,quatre cocos,-20.21,57.76,20.0,14.88,20.0,20.0,60,8.2,75,MU,14400
433,teya,60.38,92.63,9.56,7.41,9.56,9.56,91,2.46,98,RU,25200
434,sao paulo de olivenca,-3.38,-68.87,26.13,30.84,26.13,26.13,80,0.3,89,BR,-14400
435,santiago,-33.46,-70.65,12.0,8.7,12.0,12.0,46,2.04,40,CL,-14400
436,dingzhou,38.51,115.0,23.0,25.51,23.0,23.0,78,1.0,6,CN,28800
437,inhambane,-23.86,35.38,17.89,15.73,17.78,18.0,82,5.28,40,MZ,7200
438,nuuk,64.18,-51.72,11.0,7.63,11.0,11.0,81,4.1,75,GL,-7200
439,maridi,4.92,29.47,19.72,22.18,19.72,19.72,96,1.15,20,SS,10800
440,grindavik,63.84,-22.43,13.0,5.92,13.0,13.0,54,8.2,3,IS,0
441,arnes,60.12,11.47,17.69,13.22,16.67,19.44,36,4.1,24,NO,7200
442,belvedere marittimo,39.62,15.86,28.33,28.29,28.33,28.33,51,3.58,0,IT,7200
444,bukoba,-1.33,31.81,21.0,23.27,21.0,21.0,83,0.75,3,TZ,10800
445,pisco,-13.7,-76.22,20.48,19.7,20.0,21.11,68,3.1,0,PE,-18000
446,bonthe,7.53,-12.51,24.57,25.72,24.57,24.57,90,5.7,100,SL,0
447,bilibino,68.05,166.44,20.31,18.41,20.31,20.31,45,2.04,0,RU,43200
448,homer,59.64,-151.55,13.25,11.89,12.78,14.0,82,2.1,1,US,-28800
449,taltal,-25.4,-70.48,14.57,11.37,14.57,14.57,51,2.83,0,CL,-14400
450,novyy urengoy,66.08,76.63,10.13,5.5,10.13,10.13,69,4.92,0,RU,18000
451,korla,41.76,86.15,21.81,18.42,21.81,21.81,56,6.01,0,CN,28800
452,meulaboh,4.14,96.13,23.89,27.69,23.89,23.89,91,1.54,100,ID,25200
453,road town,18.42,-64.62,30.23,33.47,28.89,32.0,74,4.6,40,VG,-14400
454,naze,28.37,129.48,28.0,31.8,28.0,28.0,83,3.6,20,JP,32400
455,kiunga,-6.12,141.29,22.71,26.82,22.71,22.71,95,0.75,93,PG,36000
456,tianpeng,30.99,103.94,26.11,20.9,26.11,26.11,1,1.89,100,CN,28800
457,muli,2.92,73.57,28.35,30.41,28.35,28.35,74,4.75,100,MV,18000
458,olga,43.74,135.29,14.45,14.99,14.45,14.45,93,0.71,75,RU,36000
460,tambun,-6.26,107.07,26.29,31.84,25.56,27.22,88,0.5,20,ID,25200
461,mayo,38.89,-76.51,31.93,36.39,30.56,33.33,66,2.6,75,US,-14400
462,hami,42.8,93.45,25.98,24.41,25.98,25.98,38,2.52,100,CN,28800
463,beyneu,45.32,55.2,26.16,22.2,26.16,26.16,30,4.73,0,KZ,18000
464,santa cruz,-17.8,-63.17,27.0,27.05,27.0,27.0,65,5.1,75,BO,-14400
465,vendas novas,38.68,-8.46,28.6,26.05,27.78,29.0,39,5.1,0,PT,3600
466,richards bay,-28.78,32.04,16.94,14.91,16.94,16.94,74,3.91,0,ZA,7200
467,qeshm,26.96,56.27,33.0,39.22,33.0,33.0,66,1.0,0,IR,16200
468,felipe carrillo puerto,19.58,-88.05,32.15,37.8,32.15,32.15,71,2.21,100,MX,-18000
470,hearst,49.68,-83.67,28.85,26.21,28.85,28.85,24,2.53,0,CA,-14400
471,apache junction,33.42,-111.55,31.8,30.99,30.0,33.33,51,6.7,75,US,-25200
472,mayumba,-3.43,10.66,22.0,24.0,22.0,22.0,83,1.74,24,GA,3600
473,vondrozo,-22.82,47.28,11.57,10.5,11.57,11.57,100,2.23,83,MG,10800
475,bayanday,53.07,105.51,11.49,11.23,11.49,11.49,86,0.14,0,RU,28800
476,caucaia,-3.74,-38.65,28.56,28.02,27.22,30.0,58,5.7,75,BR,-10800
477,ailigandi,9.23,-78.02,28.68,32.57,28.68,28.68,73,2.22,29,PA,-18000
478,moerai,-22.43,-151.33,22.12,20.9,22.12,22.12,78,5.8,0,PF,-36000
479,bom jesus da lapa,-13.26,-43.42,31.0,29.71,31.0,31.0,33,3.1,1,BR,-10800
480,macaubas,-13.02,-42.7,28.93,26.18,28.93,28.93,32,4.21,5,BR,-10800
481,betul,21.92,77.9,23.46,25.91,23.46,23.46,91,3.14,22,IN,19800
482,mundo novo,-11.86,-40.47,24.14,23.62,24.14,24.14,62,3.8,39,BR,-10800
483,stokmarknes,68.56,14.91,10.39,8.43,10.0,11.0,93,2.6,75,NO,7200
484,anicuns,-16.46,-49.96,30.51,28.9,30.51,30.51,23,1.3,0,BR,-10800
485,uglegorsk,49.08,142.03,12.35,10.63,12.35,12.35,78,2.01,100,RU,39600
486,batticaloa,7.71,81.69,26.55,28.41,26.55,26.55,83,5.17,100,LK,19800
487,ypsonas,34.69,32.96,28.0,33.46,28.0,28.0,88,2.12,0,CY,10800
488,ewa beach,21.32,-158.01,26.04,28.42,24.0,27.0,74,2.6,20,US,-36000
489,qaqortoq,60.72,-46.03,18.0,12.31,18.0,18.0,39,6.2,75,GL,-7200
490,narsaq,60.92,-46.05,18.0,12.31,18.0,18.0,39,6.2,75,GL,-7200
491,kawambwa,-9.79,29.08,16.3,12.29,16.3,16.3,38,3.33,0,ZM,7200
492,karimnagar,18.43,79.15,23.69,26.4,23.69,23.69,87,2.39,100,IN,19800
493,brae,60.4,-1.35,14.0,10.75,14.0,14.0,82,5.1,75,GB,3600
494,tevaitoa,-16.78,-151.5,25.39,23.83,25.39,25.39,80,8.7,3,PF,-36000
495,ornskoldsvik,63.29,18.72,11.0,4.41,11.0,11.0,81,8.7,100,SE,7200
496,polyarnyy,69.2,33.45,20.0,18.43,20.0,20.0,68,4.0,0,RU,10800
497,soyo,-6.13,12.37,22.41,22.91,22.41,22.41,81,3.89,0,AO,3600
498,jhalrapatan,24.55,76.17,28.76,31.39,28.76,28.76,70,3.52,51,IN,19800
499,raymond,43.9,-70.47,25.98,28.76,24.44,27.78,80,2.94,99,US,-14400
500,kodinsk,58.69,99.18,13.53,12.2,13.53,13.53,69,1.22,100,RU,25200
501,kelvington,52.17,-103.53,26.0,26.24,26.0,26.0,81,6.74,6,CA,-21600
502,odweyne,9.41,45.06,23.05,18.79,23.05,23.05,55,7.66,0,SO,10800
503,lao cai,22.48,103.95,24.85,29.01,24.85,24.85,82,0.44,96,VN,25200
504,sarangani,5.4,125.46,28.9,31.22,28.9,28.9,73,4.63,100,PH,28800
505,salto,-31.38,-57.97,13.94,12.65,13.89,14.0,93,3.1,90,UY,-10800
507,saint-augustin,51.23,-58.65,22.07,16.51,22.07,22.07,44,7.72,50,CA,-14400
508,moscow,55.75,37.62,14.37,13.28,14.0,15.0,67,1.0,0,RU,10800
509,qui nhon,13.77,109.23,25.85,29.71,25.85,25.85,84,1.93,99,VN,25200
510,ixtapa,20.7,-105.2,31.1,35.58,30.0,32.22,74,3.6,40,MX,-18000
511,trelew,-43.25,-65.31,4.49,0.16,4.49,4.49,71,3.29,100,AR,-10800
512,reyes,-14.32,-67.38,32.55,34.44,32.55,32.55,44,1.73,19,BO,-14400
513,tabou,4.42,-7.35,24.16,25.66,24.16,24.16,87,4.47,49,CI,0
514,tuatapere,-46.13,167.68,3.89,1.16,3.89,3.89,83,1.34,98,NZ,43200
517,cape canaveral,28.41,-80.6,30.13,31.28,28.89,31.0,70,6.7,20,US,-14400
518,launceston,-41.45,147.17,0.73,-2.97,-1.0,2.22,100,2.6,79,AU,36000
519,tsiroanomandidy,-18.77,46.03,14.15,9.94,14.15,14.15,56,4.55,30,MG,10800
520,maraba,-5.37,-49.12,36.0,36.12,36.0,36.0,34,3.6,20,BR,-10800
521,mawlaik,23.63,94.42,24.7,29.7,24.7,24.7,95,1.04,100,MM,23400
522,deli tua,3.51,98.68,25.0,29.75,25.0,25.0,94,1.5,40,ID,25200
523,mwinilunga,-11.74,24.43,14.53,11.01,14.53,14.53,40,2.43,0,ZM,7200
524,saint andrews,34.05,-81.13,34.75,37.16,33.0,36.11,49,3.6,40,US,-14400
525,margate,51.38,1.39,20.38,18.91,20.0,20.56,48,1.79,100,GB,3600
526,porto velho,-8.76,-63.9,34.0,35.88,34.0,34.0,44,2.6,20,BR,-14400
527,chumikan,54.72,135.31,8.36,7.32,8.36,8.36,94,0.63,20,RU,36000
528,borova,50.18,30.1,20.0,17.36,20.0,20.0,45,3.0,100,UA,10800
529,oranjestad,12.52,-70.03,31.0,30.66,31.0,31.0,66,8.7,75,AW,-14400
530,tanah merah,5.8,102.15,25.78,30.69,25.56,26.0,88,1.0,20,MY,28800
531,itoman,26.12,127.67,28.33,30.86,27.78,29.0,83,5.7,20,JP,32400
532,erdaojiang,41.78,126.03,18.12,18.58,18.12,18.12,75,0.96,100,CN,28800
533,santa fe,-31.63,-60.7,8.62,6.54,8.33,8.89,86,1.79,100,AR,-10800
534,soavinandriana,-19.17,46.73,8.6,4.49,8.6,8.6,78,4.26,0,MG,10800
535,marsh harbour,26.54,-77.06,29.13,29.41,29.13,29.13,74,7.92,84,BS,-14400
536,puteyets,65.17,57.09,17.76,15.5,17.76,17.76,61,3.35,1,RU,10800
537,havelock,34.88,-76.9,32.12,27.17,30.0,34.0,26,7.2,40,US,-14400
538,santander,43.46,-3.8,22.95,24.32,22.22,23.89,78,2.6,75,ES,7200
539,yulara,-25.24,130.99,4.0,-0.1,4.0,4.0,64,2.6,0,AU,34200
540,cochabamba,-17.39,-66.16,25.0,22.24,25.0,25.0,22,1.5,75,BO,-14400
541,majene,-3.54,118.97,25.1,25.6,25.1,25.1,84,6.15,100,ID,28800
542,dryden,49.78,-92.75,26.0,23.11,26.0,26.0,36,4.1,1,CA,-18000
543,taloqan,36.74,69.53,29.74,25.7,29.74,29.74,14,2.8,0,AF,16200
544,luzhou,28.87,105.44,24.98,29.78,24.98,24.98,95,1.56,100,CN,28800
545,luena,-11.78,19.92,14.28,10.69,14.28,14.28,37,2.25,0,AO,3600
546,cabildo,-38.48,-61.9,7.3,1.27,7.3,7.3,94,7.43,100,AR,-10800
547,vagur,61.47,-6.81,11.78,9.74,11.78,11.78,80,2.41,93,FO,3600
548,sao filipe,14.9,-24.5,26.05,29.32,26.05,26.05,85,3.08,100,CV,-3600
550,oksfjord,70.24,22.35,9.45,7.18,8.89,10.0,100,3.1,75,NO,7200
551,grand gaube,-20.01,57.66,20.0,18.58,20.0,20.0,62,3.13,3,MU,14400
552,kenora,49.82,-94.43,25.78,21.0,25.56,26.0,39,7.2,40,CA,-18000
553,shingu,33.73,135.98,24.39,27.72,24.39,24.39,81,1.16,100,JP,32400
554,nizwa,22.93,57.53,27.56,27.94,27.56,27.56,66,5.17,17,OM,14400
555,orlik,52.52,99.83,10.78,9.58,10.78,10.78,66,0.02,57,RU,28800
556,nokaneng,-19.67,22.27,13.91,9.06,13.91,13.91,36,3.9,0,BW,7200
557,haimen,23.19,116.61,28.0,33.62,28.0,28.0,83,1.0,100,CN,28800
558,palmer,42.16,-72.33,30.14,30.73,27.78,31.67,58,5.1,75,US,-14400
559,panaba,21.28,-88.27,33.66,36.94,33.66,33.66,56,3.33,40,MX,-18000
560,bonnyville,54.27,-110.73,23.0,23.21,23.0,23.0,69,3.1,75,CA,-21600
561,batsfjord,70.63,29.72,11.29,11.0,10.0,13.0,100,1.0,90,NO,7200
562,cocorit,27.58,-109.97,33.0,33.74,33.0,33.0,46,4.1,40,MX,-25200
563,gillette,44.29,-105.5,31.0,24.04,29.44,32.0,24,9.3,1,US,-21600
564,parnamirim,-5.92,-35.26,28.62,26.87,28.0,29.0,62,8.2,40,BR,-10800
565,katherine,-14.47,132.27,14.0,11.02,14.0,14.0,54,2.6,0,AU,34200
566,songjianghe,42.19,127.48,14.56,13.85,14.56,14.56,80,1.54,100,CN,28800
567,nueva gerona,21.88,-82.8,30.79,32.4,30.79,30.79,69,6.37,100,CU,-14400
568,tomohon,1.33,124.84,24.0,28.53,24.0,24.0,94,1.0,20,ID,28800
569,csorvas,46.63,20.83,21.72,21.72,20.56,23.0,64,2.1,42,HU,7200
570,umm lajj,25.02,37.27,33.05,33.96,33.05,33.05,44,3.41,3,SA,10800
571,lyngseidet,69.58,20.22,9.0,7.73,9.0,9.0,100,1.5,75,NO,7200
572,goundam,16.41,-3.67,39.53,37.34,39.53,39.53,21,4.5,0,ML,0
573,muscle shoals,34.74,-87.67,32.9,36.4,32.22,33.89,52,1.5,1,US,-18000
574,oksovskiy,62.61,39.9,14.3,13.83,14.3,14.3,94,2.17,100,RU,10800
575,khuzhir,53.19,107.34,12.83,10.9,12.83,12.83,81,2.69,0,RU,28800
